[
  {
    "id": 1,
    "agency": "경상북도 포항시청",
    "road_addr": "경상북도 포항시 남구 효성로 19 (효자동)",
    "street_addr": "경상북도 포항시 남구 효자동 574-1",
    "objective": "생활방범",
    "cnt": 3,
    "shoot_direction": "선힐스크린골프",
    "install_time": "2019-07",
    "latitude": 36.0068,
    "longitude": 129.336
  },
  {
    "id": 2,
    "agency": "경상북도 포항시청",
    "road_addr": "경상북도 포항시 남구 효자로32번길 14-8 (지곡동)",
    "street_addr": "경상북도 포항시 남구 지곡동 209-18",
    "objective": "생활방범",
    "cnt": 2,
    "shoot_direction": "주택가",
    "install_time": "2019-07",
    "latitude": 36.0103,
    "longitude": 129.3301
  },
  {
    "id": 3,
    "agency": "경상북도 포항시청",
    "road_addr": "경상북도 포항시 남구 지곡로 303 (지곡동, 그린빌라)",
    "street_addr": "경상북도 포항시 남구 지곡동 643-1",
    "objective": "생활방범",
    "cnt": 3,
    "shoot_direction": "LG그린빌327동",
    "install_time": "2018-06",
    "latitude": 36.0293,
    "longitude": 129.3193
  },
  {
    "id": 4,
    "agency": "경상북도 포항시청",
    "road_addr": "경상북도 포항시 남구 효자로32번길 6 (지곡동)",
    "street_addr": "경상북도 포항시 남구 지곡동 209-59",
    "objective": "생활방범",
    "cnt": 2,
    "shoot_direction": "행복빌라",
    "install_time": "2018-06",
    "latitude": 36.0104,
    "longitude": 129.3305
  },
  {
    "id": 5,
    "agency": "경상북도 포항시청",
    "road_addr": null,
    "street_addr": "경상북도 포항시 남구 효자동 616-2",
    "objective": "생활방범",
    "cnt": 3,
    "shoot_direction": "몽실포차",
    "install_time": "2018-06",
    "latitude": 36.0052,
    "longitude": 129.3407
  },
  {
    "id": 6,
    "agency": "경상북도 포항시청",
    "road_addr": null,
    "street_addr": "경상북도 포항시 남구 대잠동 780-367",
    "objective": "생활방범",
    "cnt": 2,
    "shoot_direction": "테라비아타입구",
    "install_time": "2018-06",
    "latitude": 36.0108,
    "longitude": 129.3342
  },
  {
    "id": 7,
    "agency": "경상북도 포항시청",
    "road_addr": "경상북도 포항시 남구 효성로52번길 13 (효자동)",
    "street_addr": "경상북도 포항시 남구 효자동 599",
    "objective": "생활방범",
    "cnt": 2,
    "shoot_direction": "효자동맥주",
    "install_time": "2018-06",
    "latitude": 36.0048,
    "longitude": 129.3392
  },
  {
    "id": 8,
    "agency": "경상북도 포항시청",
    "road_addr": "경상북도 포항시 남구 지곡로 319 (지곡동, 그린빌라)",
    "street_addr": "경상북도 포항시 남구 지곡동 647-1",
    "objective": "생활방범",
    "cnt": 3,
    "shoot_direction": "LG그린빌333동앞",
    "install_time": "2010-07",
    "latitude": 36.0284,
    "longitude": 129.3169
  },
  {
    "id": 9,
    "agency": "경상북도 포항시청",
    "road_addr": null,
    "street_addr": "경상북도 포항시 남구 효자동 52-4",
    "objective": "생활방범",
    "cnt": 2,
    "shoot_direction": "SKVIEW",
    "install_time": "2009-07",
    "latitude": 36.0048,
    "longitude": 129.3347
  },
  {
    "id": 10,
    "agency": "경상북도 포항시청",
    "road_addr": "경상북도 포항시 남구 효성로63번길 6 (효자동)",
    "street_addr": "경상북도 포항시 남구 효자동 580-13",
    "objective": "생활방범",
    "cnt": 3,
    "shoot_direction": "효자풍림입구",
    "install_time": "2015-07",
    "latitude": 36.0064,
    "longitude": 129.3408
  },
  {
    "id": 11,
    "agency": "경상북도 포항시청",
    "road_addr": "경상북도 포항시 남구 효성로43번길 13 (효자동)",
    "street_addr": "경상북도 포항시 남구 효자동 578-14",
    "objective": "생활방범",
    "cnt": 2,
    "shoot_direction": "효자풍림102동옆",
    "install_time": "2015-07",
    "latitude": 36.0074,
    "longitude": 129.3386
  },
  {
    "id": 12,
    "agency": "경상북도 포항시청",
    "road_addr": "경상북도 포항시 남구 효행길53번길 23-1 (지곡동)",
    "street_addr": "경상북도 포항시 남구 지곡동 209-51",
    "objective": "생활방범",
    "cnt": 3,
    "shoot_direction": "지곡주택단지",
    "install_time": "2013-07",
    "latitude": 36.0094,
    "longitude": 129.33
  },
  {
    "id": 13,
    "agency": "경상북도 포항시청",
    "road_addr": "경상북도 포항시 남구 효자동길10번길 35 (효자동)",
    "street_addr": "경상북도 포항시 남구 효자동 220-11",
    "objective": "생활방범",
    "cnt": 2,
    "shoot_direction": "효자상경빌",
    "install_time": "2011-07",
    "latitude": 36.009,
    "longitude": 129.3334
  },
  {
    "id": 14,
    "agency": "경상북도 포항시청",
    "road_addr": null,
    "street_addr": "경상북도 포항시 남구 지곡동 645-1",
    "objective": "생활방범",
    "cnt": 3,
    "shoot_direction": "롯데마트",
    "install_time": "2017-07",
    "latitude": 36.0285,
    "longitude": 129.3235
  },
  {
    "id": 15,
    "agency": "경상북도 포항시청",
    "road_addr": "경상북도 포항시 남구 효행길 53 (효자동)",
    "street_addr": "경상북도 포항시 남구 효자동 229-37",
    "objective": "생활방범",
    "cnt": 2,
    "shoot_direction": "존하우스",
    "install_time": "2016-07",
    "latitude": 36.011,
    "longitude": 129.3318
  },
  {
    "id": 16,
    "agency": "경상북도 포항시청",
    "road_addr": "경상북도 포항시 남구 효자동길1번길 8 (효자동)",
    "street_addr": "경상북도 포항시 남구 효자동 253-126",
    "objective": "생활방범",
    "cnt": 2,
    "shoot_direction": "효자공영주차장",
    "install_time": "2016-07",
    "latitude": 36.0076,
    "longitude": 129.3287
  },
  {
    "id": 17,
    "agency": "경상북도 포항시청",
    "road_addr": "경상북도 포항시 남구 효자로118번길 36 (효자동)",
    "street_addr": "경상북도 포항시 남구 효자동 134-3",
    "objective": "생활방범",
    "cnt": 3,
    "shoot_direction": "한성칼국수",
    "install_time": "2016-07",
    "latitude": 36.0084,
    "longitude": 129.3358
  },
  {
    "id": 18,
    "agency": "경상북도 포항시청",
    "road_addr": "경상북도 포항시 남구 효자동길6번길 10 (효자동)",
    "street_addr": "경상북도 포항시 남구 효자동 303-1",
    "objective": "생활방범",
    "cnt": 2,
    "shoot_direction": "효자한약국",
    "install_time": "2015-07",
    "latitude": 36.0082,
    "longitude": 129.3309
  },
  {
    "id": 19,
    "agency": "경상북도 포항시청",
    "road_addr": "경상북도 포항시 남구 효성로15번길 24 (효자동)",
    "street_addr": "경상북도 포항시 남구 효자동 576-1",
    "objective": "생활방범",
    "cnt": 2,
    "shoot_direction": "영은하이츠",
    "install_time": "2015-07",
    "latitude": 36.0066,
    "longitude": 129.3379
  },
  {
    "id": 20,
    "agency": "경상북도 포항시청",
    "road_addr": null,
    "street_addr": "경상북도 포항시 남구 효자동 440-4",
    "objective": "생활방범",
    "cnt": 2,
    "shoot_direction": "효자원룸",
    "install_time": "2013-07",
    "latitude": 36.0069,
    "longitude": 129.326
  },
  {
    "id": 21,
    "agency": "경상북도 포항시청",
    "road_addr": null,
    "street_addr": "경상북도 포항시 남구 효자동 376",
    "objective": "생활방범",
    "cnt": 2,
    "shoot_direction": "대동LPG주유소뒷편",
    "install_time": "2011-07",
    "latitude": 36.0042,
    "longitude": 129.3246
  },
  {
    "id": 22,
    "agency": "경상북도 포항시청",
    "road_addr": "경상북도 포항시 북구 창흥로 34 (창포동)",
    "street_addr": "경상북도 포항시 북구 창포동 618-12",
    "objective": "생활방범",
    "cnt": 2,
    "shoot_direction": "CU포항창포점사거리",
    "install_time": "2014-06",
    "latitude": 36.0629,
    "longitude": 129.3671
  },
  {
    "id": 23,
    "agency": "경상북도 포항시청",
    "road_addr": "경상북도 포항시 북구 창흥로 68 (창포동, 두호주공3차아파트)",
    "street_addr": "경상북도 포항시 북구 창포동 613",
    "objective": "생활방범",
    "cnt": 4,
    "shoot_direction": "창포메트로시티",
    "install_time": "2017-03",
    "latitude": 36.064,
    "longitude": 129.3673
  },
  {
    "id": 24,
    "agency": "경상북도 포항시청",
    "road_addr": null,
    "street_addr": "경상북도 포항시 북구 우현동 410-5",
    "objective": "생활방범",
    "cnt": 2,
    "shoot_direction": "대영교통",
    "install_time": "2017-04",
    "latitude": 36.0588,
    "longitude": 129.3474
  },
  {
    "id": 25,
    "agency": "경상북도 포항시청",
    "road_addr": "경상북도 포항시 북구 창흥로36번길 1-4 (창포동)",
    "street_addr": "경상북도 포항시 북구 창포동 613-29",
    "objective": "생활방범",
    "cnt": 3,
    "shoot_direction": "창포동613-29",
    "install_time": "2017-04",
    "latitude": 36.0633,
    "longitude": 129.3669
  },
  {
    "id": 26,
    "agency": "경상북도 포항시청",
    "road_addr": null,
    "street_addr": "경상북도 포항시 북구 창포동 349-2",
    "objective": "생활방범",
    "cnt": 3,
    "shoot_direction": "나무와아이들어린이집",
    "install_time": "2017-04",
    "latitude": 36.0614,
    "longitude": 129.3674
  },
  {
    "id": 27,
    "agency": "경상북도 포항시청",
    "road_addr": "경상북도 포항시 북구 창흥로11번길 8 (창포동)",
    "street_addr": "경상북도 포항시 북구 창포동 626-6",
    "objective": "생활방범",
    "cnt": 2,
    "shoot_direction": "성봉파크5차",
    "install_time": "2017-04",
    "latitude": 36.0613,
    "longitude": 129.3687
  },
  {
    "id": 28,
    "agency": "경상북도 포항시청",
    "road_addr": null,
    "street_addr": "경상북도 포항시 북구 우현동 346-2",
    "objective": "생활방범",
    "cnt": 2,
    "shoot_direction": "박가네치킨",
    "install_time": "2017-04",
    "latitude": 36.0523,
    "longitude": 129.3525
  },
  {
    "id": 29,
    "agency": "경상북도 포항시청",
    "road_addr": null,
    "street_addr": "경상북도 포항시 북구 우현동 141-2",
    "objective": "생활방범",
    "cnt": 1,
    "shoot_direction": "CU편의점",
    "install_time": "2016-07",
    "latitude": 36.0507,
    "longitude": 129.3582
  },
  {
    "id": 30,
    "agency": "경상북도 포항시청",
    "road_addr": "경상북도 포항시 북구 중앙로 415 (우현동)",
    "street_addr": "경상북도 포항시 북구 우현동 93-5",
    "objective": "생활방범",
    "cnt": 1,
    "shoot_direction": "우현경로당",
    "install_time": "2022-08",
    "latitude": 36.0493,
    "longitude": 129.3621
  },
  {
    "id": 31,
    "agency": "경상북도 포항시청",
    "road_addr": "경상북도 포항시 북구 새천년대로 1099 (창포동)",
    "street_addr": "경상북도 포항시 북구 창포동 645-9",
    "objective": "생활방범",
    "cnt": 1,
    "shoot_direction": "창포주공",
    "install_time": "2015-12",
    "latitude": 36.0667,
    "longitude": 129.3719
  },
  {
    "id": 32,
    "agency": "경상북도 포항시청",
    "road_addr": "경상북도 포항시 북구 창흥로35번길 16-4 (창포동)",
    "street_addr": "경상북도 포항시 북구 창포동 611-14",
    "objective": "생활방범",
    "cnt": 2,
    "shoot_direction": "월드컵마트",
    "install_time": "2015-12",
    "latitude": 36.0631,
    "longitude": 129.3662
  },
  {
    "id": 33,
    "agency": "경상북도 포항시청",
    "road_addr": null,
    "street_addr": "경상북도 포항시 북구 용흥동 303-11",
    "objective": "생활방범",
    "cnt": 1,
    "shoot_direction": "용흥교우주택",
    "install_time": "2022-08",
    "latitude": 36.0335,
    "longitude": 129.355
  },
  {
    "id": 34,
    "agency": "경상북도 포항시청",
    "road_addr": "경상북도 포항시 북구 새마을로15번길 4-4 (용흥동)",
    "street_addr": "경상북도 포항시 북구 용흥동 89-3",
    "objective": "생활방범",
    "cnt": 2,
    "shoot_direction": "주택골목",
    "install_time": "2022-08",
    "latitude": 36.0375,
    "longitude": 129.3582
  },
  {
    "id": 35,
    "agency": "경상북도 포항시청",
    "road_addr": "경상북도 포항시 북구 중앙로308번길 6-7 (여천동)",
    "street_addr": "경상북도 포항시 북구 여천동 63-1",
    "objective": "생활방범",
    "cnt": 3,
    "shoot_direction": "북경주차장",
    "install_time": "2015-12",
    "latitude": 36.0397,
    "longitude": 129.3672
  },
  {
    "id": 36,
    "agency": "경상북도 포항시청",
    "road_addr": "경상북도 포항시 북구 중앙로298번길 6 (상원동)",
    "street_addr": "경상북도 포항시 북구 상원동 447-15",
    "objective": "생활방범",
    "cnt": 2,
    "shoot_direction": "압구정상원점",
    "install_time": "2015-12",
    "latitude": 36.0393,
    "longitude": 129.3668
  },
  {
    "id": 37,
    "agency": "경상북도 포항시청",
    "road_addr": "경상북도 포항시 북구 서동로 84 (상원동)",
    "street_addr": "경상북도 포항시 북구 상원동 441-1",
    "objective": "생활방범",
    "cnt": 2,
    "shoot_direction": "우리은행포항지점",
    "install_time": "2015-12",
    "latitude": 36.0401,
    "longitude": 129.3671
  },
  {
    "id": 38,
    "agency": "경상북도 포항시청",
    "road_addr": null,
    "street_addr": "경상북도 포항시 북구 죽장면 석계리 525",
    "objective": "생활방범",
    "cnt": 2,
    "shoot_direction": "석계1교",
    "install_time": "2022-08",
    "latitude": 36.2117,
    "longitude": 129.111
  },
  {
    "id": 39,
    "agency": "경상북도 포항시청",
    "road_addr": null,
    "street_addr": "경상북도 포항시 북구 죽장면 두마리 561",
    "objective": "생활방범",
    "cnt": 2,
    "shoot_direction": "두마리마을",
    "install_time": "2022-08",
    "latitude": 36.1684,
    "longitude": 129.0287
  },
  {
    "id": 40,
    "agency": "경상북도 포항시청",
    "road_addr": null,
    "street_addr": "경상북도 포항시 북구 죽장면 상사리 927-3",
    "objective": "생활방범",
    "cnt": 2,
    "shoot_direction": "상사1교마을입구",
    "install_time": "2021-08",
    "latitude": 36.2377,
    "longitude": 129.0956
  },
  {
    "id": 41,
    "agency": "경상북도 포항시청",
    "road_addr": null,
    "street_addr": "경상북도 포항시 북구 죽장면 상옥리 1035",
    "objective": "생활방범",
    "cnt": 3,
    "shoot_direction": "태산농원",
    "install_time": "2020-07",
    "latitude": 36.2246,
    "longitude": 129.2091
  },
  {
    "id": 42,
    "agency": "경상북도 포항시청",
    "road_addr": "경상북도 포항시 북구 죽장면 병보천길 714",
    "street_addr": "경상북도 포항시 북구 죽장면 상사리 1181-1",
    "objective": "생활방범",
    "cnt": 2,
    "shoot_direction": "상사분교",
    "install_time": "2020-07",
    "latitude": 36.252,
    "longitude": 129.0925
  },
  {
    "id": 43,
    "agency": "경상북도 포항시청",
    "road_addr": null,
    "street_addr": "경상북도 포항시 북구 죽장면 입암리 643-14",
    "objective": "생활방범",
    "cnt": 2,
    "shoot_direction": "서포중학교",
    "install_time": "2020-07",
    "latitude": 36.1627,
    "longitude": 129.093
  },
  {
    "id": 44,
    "agency": "경상북도 포항시청",
    "road_addr": null,
    "street_addr": "경상북도 포항시 북구 죽장면 입암리 173-10",
    "objective": "생활방범",
    "cnt": 2,
    "shoot_direction": "입암서원",
    "install_time": "2019-07",
    "latitude": 36.1629,
    "longitude": 129.1028
  },
  {
    "id": 45,
    "agency": "경상북도 포항시청",
    "road_addr": null,
    "street_addr": "경상북도 포항시 북구 죽장면 하옥리 681",
    "objective": "생활방범",
    "cnt": 2,
    "shoot_direction": "하옥계곡야영장",
    "install_time": "2019-07",
    "latitude": 36.2913,
    "longitude": 129.2504
  },
  {
    "id": 46,
    "agency": "경상북도 포항시청",
    "road_addr": "경상북도 포항시 북구 죽장면 새마을로3622번길 8",
    "street_addr": "경상북도 포항시 북구 죽장면 입암리 858-270",
    "objective": "생활방범",
    "cnt": 2,
    "shoot_direction": "포항건조기대리점",
    "install_time": "2019-07",
    "latitude": 36.1617,
    "longitude": 129.0957
  },
  {
    "id": 47,
    "agency": "경상북도 포항시청",
    "road_addr": null,
    "street_addr": "경상북도 포항시 북구 죽장면 지동리 53-5",
    "objective": "생활방범",
    "cnt": 3,
    "shoot_direction": "지동삼거리",
    "install_time": "2018-06",
    "latitude": 36.134,
    "longitude": 129.0853
  },
  {
    "id": 48,
    "agency": "경상북도 포항시청",
    "road_addr": null,
    "street_addr": "경상북도 포항시 북구 죽장면 상옥리 535-1",
    "objective": "생활방범",
    "cnt": 2,
    "shoot_direction": "상옥주유소",
    "install_time": "2022-08",
    "latitude": 36.2534,
    "longitude": 129.2125
  },
  {
    "id": 49,
    "agency": "경상북도 포항시청",
    "road_addr": null,
    "street_addr": "경상북도 포항시 북구 죽장면 상옥리 1156-3",
    "objective": "생활방범",
    "cnt": 2,
    "shoot_direction": "상옥교회",
    "install_time": "2018-06",
    "latitude": 36.2319,
    "longitude": 129.2095
  },
  {
    "id": 50,
    "agency": "경상북도 포항시청",
    "road_addr": "경상북도 포항시 북구 죽장면 새마을로2940번길 7",
    "street_addr": "경상북도 포항시 북구 죽장면 정자리 390-3",
    "objective": "생활방범",
    "cnt": 1,
    "shoot_direction": "정자교회",
    "install_time": "2018-06",
    "latitude": 36.1312,
    "longitude": 129.102
  },
  {
    "id": 51,
    "agency": "경상북도 포항시청",
    "road_addr": null,
    "street_addr": "경상북도 포항시 북구 죽장면 두마리 373",
    "objective": "생활방범",
    "cnt": 1,
    "shoot_direction": "대태고개부근",
    "install_time": "2018-06",
    "latitude": 36.1599,
    "longitude": 129.0362
  },
  {
    "id": 52,
    "agency": "경상북도 포항시청",
    "road_addr": null,
    "street_addr": "경상북도 포항시 북구 죽장면 가사리 605-6",
    "objective": "생활방범",
    "cnt": 2,
    "shoot_direction": "마을회관앞도로",
    "install_time": "2011-11",
    "latitude": 36.1933,
    "longitude": 129.1501
  },
  {
    "id": 53,
    "agency": "경상북도 포항시청",
    "road_addr": "경상북도 포항시 북구 죽장면 죽장로 2982-1",
    "street_addr": "경상북도 포항시 북구 죽장면 하옥리 369-2",
    "objective": "생활방범",
    "cnt": 1,
    "shoot_direction": "마을입구",
    "install_time": "2019-07",
    "latitude": 36.3157,
    "longitude": 129.2549
  },
  {
    "id": 54,
    "agency": "경상북도 포항시청",
    "road_addr": null,
    "street_addr": "경상북도 포항시 북구 죽장면 상사리 1179",
    "objective": "생활방범",
    "cnt": 2,
    "shoot_direction": "죽장상사분교다리앞",
    "install_time": "2014-08",
    "latitude": 36.2517,
    "longitude": 129.0931
  },
  {
    "id": 55,
    "agency": "경상북도 포항시청",
    "road_addr": null,
    "street_addr": "경상북도 포항시 북구 죽장면 매현리 583-4",
    "objective": "생활방범",
    "cnt": 2,
    "shoot_direction": "매현2리회관앞",
    "install_time": "2017-06",
    "latitude": 36.1771,
    "longitude": 129.1192
  },
  {
    "id": 56,
    "agency": "경상북도 포항시청",
    "road_addr": "경상북도 포항시 북구 죽장면 새마을로 3908",
    "street_addr": "경상북도 포항시 북구 죽장면 방흥리 362-1",
    "objective": "생활방범",
    "cnt": 2,
    "shoot_direction": "방흥리경로회관앞",
    "install_time": "2017-06",
    "latitude": 36.1848,
    "longitude": 129.0932
  },
  {
    "id": 57,
    "agency": "경상북도 포항시청",
    "road_addr": "경상북도 포항시 북구 죽장면 합사길 111-1",
    "street_addr": "경상북도 포항시 북구 죽장면 합덕리 601-2",
    "objective": "생활방범",
    "cnt": 2,
    "shoot_direction": "합덕보건소",
    "install_time": "2019-07",
    "latitude": 36.2009,
    "longitude": 129.0951
  },
  {
    "id": 58,
    "agency": "경상북도 포항시청",
    "road_addr": null,
    "street_addr": "경상북도 포항시 북구 죽장면 상옥리 826-2",
    "objective": "생활방범",
    "cnt": 2,
    "shoot_direction": "상옥친환경농업지구",
    "install_time": "2017-04",
    "latitude": 36.2416,
    "longitude": 129.2162
  },
  {
    "id": 59,
    "agency": "경상북도 포항시청",
    "road_addr": "경상북도 포항시 북구 죽장면 면봉산길 704",
    "street_addr": "경상북도 포항시 북구 죽장면 두마리 240-6",
    "objective": "생활방범",
    "cnt": 1,
    "shoot_direction": "양지마을입구",
    "install_time": "2016-07",
    "latitude": 36.1658,
    "longitude": 129.0356
  },
  {
    "id": 60,
    "agency": "경상북도 포항시청",
    "road_addr": null,
    "street_addr": "경상북도 포항시 북구 죽장면 감곡리 600-1",
    "objective": "생활방범",
    "cnt": 1,
    "shoot_direction": "감곡리입구",
    "install_time": "2015-02",
    "latitude": 36.1318,
    "longitude": 129.1173
  },
  {
    "id": 61,
    "agency": "경상북도 포항시청",
    "road_addr": "경상북도 포항시 북구 죽장면 새마을로3575번길 34",
    "street_addr": "경상북도 포항시 북구 죽장면 입암리 858-134",
    "objective": "생활방범",
    "cnt": 2,
    "shoot_direction": "울산돼지국밥",
    "install_time": "2015-02",
    "latitude": 36.1612,
    "longitude": 129.0939
  },
  {
    "id": 62,
    "agency": "경상북도 포항시청",
    "road_addr": "경상북도 포항시 북구 죽장면 새마을로 3610",
    "street_addr": "경상북도 포항시 북구 죽장면 입암리 314-1",
    "objective": "생활방범",
    "cnt": 3,
    "shoot_direction": "죽장삼거리",
    "install_time": "2015-02",
    "latitude": 36.1605,
    "longitude": 129.0954
  },
  {
    "id": 63,
    "agency": "경상북도 포항시청",
    "road_addr": "경상북도 포항시 북구 중흥로152번길 16 (죽도동)",
    "street_addr": "경상북도 포항시 북구 죽도동 340-40",
    "objective": "생활방범",
    "cnt": 2,
    "shoot_direction": "테마하우스",
    "install_time": "2022-08",
    "latitude": 36.017,
    "longitude": 129.3555
  },
  {
    "id": 64,
    "agency": "경상북도 포항시청",
    "road_addr": "경상북도 포항시 북구 죽도로 83 (죽도동)",
    "street_addr": "경상북도 포항시 북구 죽도동 20-140",
    "objective": "생활방범",
    "cnt": 2,
    "shoot_direction": "길벗주차장",
    "install_time": "2021-08",
    "latitude": 36.0334,
    "longitude": 129.3694
  },
  {
    "id": 65,
    "agency": "경상북도 포항시청",
    "road_addr": "경상북도 포항시 북구 중앙로245번길 13 (죽도동)",
    "street_addr": "경상북도 포항시 북구 죽도동 40-2",
    "objective": "생활방범",
    "cnt": 4,
    "shoot_direction": "포항돌곱창",
    "install_time": "2020-07",
    "latitude": 36.0347,
    "longitude": 129.3641
  },
  {
    "id": 66,
    "agency": "경상북도 포항시청",
    "road_addr": "경상북도 포항시 북구 칠성천길 70-3 (죽도동)",
    "street_addr": "경상북도 포항시 북구 죽도동 162-2",
    "objective": "생활방범",
    "cnt": 2,
    "shoot_direction": "건양상사",
    "install_time": "2020-07",
    "latitude": 36.0346,
    "longitude": 129.3617
  },
  {
    "id": 67,
    "agency": "경상북도 포항시청",
    "road_addr": "경상북도 포항시 북구 죽도로40번길 55 (죽도동, 루미아뜨)",
    "street_addr": "경상북도 포항시 북구 죽도동 95-16",
    "objective": "생활방범",
    "cnt": 2,
    "shoot_direction": "루미아뜨아파트",
    "install_time": "2020-07",
    "latitude": 36.0291,
    "longitude": 129.362
  },
  {
    "id": 68,
    "agency": "경상북도 포항시청",
    "road_addr": "경상북도 포항시 북구 양학천로 73-10 (죽도동)",
    "street_addr": "경상북도 포항시 북구 죽도동 334-57",
    "objective": "생활방범",
    "cnt": 2,
    "shoot_direction": "황금무지개원룸",
    "install_time": "2019-07",
    "latitude": 36.0211,
    "longitude": 129.3595
  },
  {
    "id": 69,
    "agency": "경상북도 포항시청",
    "road_addr": "경상북도 포항시 남구 양학천로136번길 16-11 (대도동)",
    "street_addr": "경상북도 포항시 남구 대도동 8-34",
    "objective": "생활방범",
    "cnt": 2,
    "shoot_direction": "폴라리스원룸",
    "install_time": "2017-04",
    "latitude": 36.0242,
    "longitude": 129.362
  },
  {
    "id": 70,
    "agency": "경상북도 포항시청",
    "road_addr": "경상북도 포항시 남구 문예로82번길 15 (대도동)",
    "street_addr": "경상북도 포항시 남구 대도동 124-22",
    "objective": "생활방범",
    "cnt": 4,
    "shoot_direction": "초원아파트",
    "install_time": "2017-04",
    "latitude": 36.0139,
    "longitude": 129.3661
  },
  {
    "id": 71,
    "agency": "경상북도 포항시청",
    "road_addr": "경상북도 포항시 남구 대해로91번길 29-1 (대도동)",
    "street_addr": "경상북도 포항시 남구 대도동 15-43",
    "objective": "생활방범",
    "cnt": 2,
    "shoot_direction": "미래원룸",
    "install_time": "2017-04",
    "latitude": 36.0244,
    "longitude": 129.3646
  },
  {
    "id": 72,
    "agency": "경상북도 포항시청",
    "road_addr": "경상북도 포항시 남구 상공로174번길 10 (대도동)",
    "street_addr": "경상북도 포항시 남구 대도동 66-5",
    "objective": "생활방범",
    "cnt": 3,
    "shoot_direction": "포항시영아어린이집",
    "install_time": "2017-04",
    "latitude": 36.0212,
    "longitude": 129.3653
  },
  {
    "id": 73,
    "agency": "경상북도 포항시청",
    "road_addr": "경상북도 포항시 남구 상도로16번길 21-1 (상도동)",
    "street_addr": "경상북도 포항시 남구 상도동 286",
    "objective": "생활방범",
    "cnt": 2,
    "shoot_direction": "필리체빌",
    "install_time": "2017-04",
    "latitude": 36.0104,
    "longitude": 129.3544
  },
  {
    "id": 74,
    "agency": "경상북도 포항시청",
    "road_addr": "경상북도 포항시 남구 중흥로172번길 38 (상도동)",
    "street_addr": "경상북도 포항시 남구 상도동 18-50",
    "objective": "생활방범",
    "cnt": 3,
    "shoot_direction": "낙원주택",
    "install_time": "2017-04",
    "latitude": 36.0176,
    "longitude": 129.359
  },
  {
    "id": 75,
    "agency": "경상북도 포항시청",
    "road_addr": "경상북도 포항시 남구 상공로18번길 45 (대도동)",
    "street_addr": "경상북도 포항시 남구 대도동 172-15",
    "objective": "생활방범",
    "cnt": 5,
    "shoot_direction": "한신타운",
    "install_time": "2017-04",
    "latitude": 36.0109,
    "longitude": 129.3608
  },
  {
    "id": 76,
    "agency": "경상북도 포항시청",
    "road_addr": "경상북도 포항시 남구 문예로70번길 8 (대도동)",
    "street_addr": "경상북도 포항시 남구 대도동 151-7",
    "objective": "생활방범",
    "cnt": 4,
    "shoot_direction": "별빛하이츠",
    "install_time": "2017-04",
    "latitude": 36.0132,
    "longitude": 129.3648
  },
  {
    "id": 77,
    "agency": "경상북도 포항시청",
    "road_addr": "경상북도 포항시 남구 상대로 89-15 (상도동)",
    "street_addr": "경상북도 포항시 남구 상도동 33-127",
    "objective": "생활방범",
    "cnt": 2,
    "shoot_direction": "원빌리지",
    "install_time": "2016-01",
    "latitude": 36.0149,
    "longitude": 129.3568
  },
  {
    "id": 78,
    "agency": "경상북도 포항시청",
    "road_addr": "경상북도 포항시 남구 상공로72번길 48 (대도동, 용정하이츠타운)",
    "street_addr": "경상북도 포항시 남구 대도동 153-5",
    "objective": "생활방범",
    "cnt": 2,
    "shoot_direction": "용정하이츠",
    "install_time": "2016-01",
    "latitude": 36.014,
    "longitude": 129.3634
  },
  {
    "id": 79,
    "agency": "경상북도 포항시청",
    "road_addr": "경상북도 포항시 남구 문예로52번길 7 (대도동)",
    "street_addr": "경상북도 포항시 남구 대도동 151-11",
    "objective": "생활방범",
    "cnt": 2,
    "shoot_direction": "엘리헤어샵",
    "install_time": "2016-01",
    "latitude": 36.0124,
    "longitude": 129.3646
  },
  {
    "id": 80,
    "agency": "경상북도 포항시청",
    "road_addr": "경상북도 포항시 남구 대해로114번길 10-1 (대도동)",
    "street_addr": "경상북도 포항시 남구 대도동 97-29",
    "objective": "생활방범",
    "cnt": 3,
    "shoot_direction": "매니아빌3차",
    "install_time": "2015-12",
    "latitude": 36.0202,
    "longitude": 129.3636
  },
  {
    "id": 81,
    "agency": "경상북도 포항시청",
    "road_addr": null,
    "street_addr": "경상북도 포항시 남구 대도동 100-27",
    "objective": "생활방범",
    "cnt": 2,
    "shoot_direction": "기독병원1주차장",
    "install_time": "2016-07",
    "latitude": 36.0186,
    "longitude": 129.3624
  },
  {
    "id": 82,
    "agency": "경상북도 포항시청",
    "road_addr": "경상북도 포항시 남구 중흥로140번길 41-1 (상도동)",
    "street_addr": "경상북도 포항시 남구 상도동 66-23",
    "objective": "생활방범",
    "cnt": 2,
    "shoot_direction": "차이나원룸",
    "install_time": "2016-07",
    "latitude": 36.0153,
    "longitude": 129.3572
  },
  {
    "id": 83,
    "agency": "경상북도 포항시청",
    "road_addr": "경상북도 포항시 남구 상도로8번길 36 (상도동)",
    "street_addr": "경상북도 포항시 남구 상도동 649-15",
    "objective": "생활방범",
    "cnt": 3,
    "shoot_direction": "신흥모란",
    "install_time": "2016-07",
    "latitude": 36.0095,
    "longitude": 129.3553
  },
  {
    "id": 84,
    "agency": "경상북도 포항시청",
    "road_addr": "경상북도 포항시 남구 상공로56번길 6 (상도동)",
    "street_addr": "경상북도 포항시 남구 상도동 634-9",
    "objective": "생활방범",
    "cnt": 2,
    "shoot_direction": "시립영암",
    "install_time": "2016-07",
    "latitude": 36.013,
    "longitude": 129.3579
  },
  {
    "id": 85,
    "agency": "경상북도 포항시청",
    "road_addr": "경상북도 포항시 남구 문예로40번길 16 (대도동, 경인일호주택)",
    "street_addr": "경상북도 포항시 남구 대도동 146-1",
    "objective": "생활방범",
    "cnt": 2,
    "shoot_direction": "경인일호주택",
    "install_time": "2016-07",
    "latitude": 36.0115,
    "longitude": 129.3657
  },
  {
    "id": 86,
    "agency": "경상북도 포항시청",
    "road_addr": "경상북도 포항시 남구 상공로72번길 15 (대도동)",
    "street_addr": "경상북도 포항시 남구 대도동 157-25",
    "objective": "생활방범",
    "cnt": 2,
    "shoot_direction": "상대빌",
    "install_time": "2016-07",
    "latitude": 36.0142,
    "longitude": 129.3599
  },
  {
    "id": 87,
    "agency": "경상북도 포항시청",
    "road_addr": "경상북도 포항시 남구 중흥로58번길 16 (상도동, 경동하이츠 10차)",
    "street_addr": "경상북도 포항시 남구 상도동 671-8",
    "objective": "생활방범",
    "cnt": 2,
    "shoot_direction": "경동하이츠10차",
    "install_time": "2022-08",
    "latitude": 36.0103,
    "longitude": 129.3503
  },
  {
    "id": 88,
    "agency": "경상북도 포항시청",
    "road_addr": "경상북도 포항시 남구 상공로56번길 33 (대도동)",
    "street_addr": "경상북도 포항시 남구 대도동 159-35",
    "objective": "생활방범",
    "cnt": 3,
    "shoot_direction": "동일하이츠",
    "install_time": "2016-07",
    "latitude": 36.0127,
    "longitude": 129.3609
  },
  {
    "id": 89,
    "agency": "경상북도 포항시청",
    "road_addr": "경상북도 포항시 남구 양학천로76번길 14 (상도동)",
    "street_addr": "경상북도 포항시 남구 상도동 4-1",
    "objective": "생활방범",
    "cnt": 1,
    "shoot_direction": "상대종합시장",
    "install_time": "2015-12",
    "latitude": 36.0196,
    "longitude": 129.3612
  },
  {
    "id": 90,
    "agency": "경상북도 포항시청",
    "road_addr": "경상북도 포항시 남구 양학천로76번길 16-8 (상도동)",
    "street_addr": "경상북도 포항시 남구 상도동 4-24",
    "objective": "생활방범",
    "cnt": 1,
    "shoot_direction": "영광하이츠",
    "install_time": "2015-12",
    "latitude": 36.0192,
    "longitude": 129.3609
  },
  {
    "id": 91,
    "agency": "경상북도 포항시청",
    "road_addr": "경상북도 포항시 남구 중흥로140번길 29 (상도동)",
    "street_addr": "경상북도 포항시 남구 상도동 33-94",
    "objective": "생활방범",
    "cnt": 2,
    "shoot_direction": "행복한파라곤빌",
    "install_time": "2015-12",
    "latitude": 36.0155,
    "longitude": 129.3562
  },
  {
    "id": 92,
    "agency": "경상북도 포항시청",
    "road_addr": "경상북도 포항시 남구 상도로42번길 9 (상도동, 수영빌라)",
    "street_addr": "경상북도 포항시 남구 상도동 627-6",
    "objective": "생활방범",
    "cnt": 2,
    "shoot_direction": "홍안빌라",
    "install_time": "2015-12",
    "latitude": 36.0124,
    "longitude": 129.3546
  },
  {
    "id": 93,
    "agency": "경상북도 포항시청",
    "road_addr": "경상북도 포항시 남구 상도로16번길 13 (상도동)",
    "street_addr": "경상북도 포항시 남구 상도동 321",
    "objective": "생활방범",
    "cnt": 3,
    "shoot_direction": "삼성빌라",
    "install_time": "2015-12",
    "latitude": 36.0105,
    "longitude": 129.3533
  },
  {
    "id": 94,
    "agency": "경상북도 포항시청",
    "road_addr": "경상북도 포항시 남구 대해로114번길 19-22 (대도동)",
    "street_addr": "경상북도 포항시 남구 대도동 99-4",
    "objective": "생활방범",
    "cnt": 2,
    "shoot_direction": "태백빌라",
    "install_time": "2015-12",
    "latitude": 36.0191,
    "longitude": 129.3638
  },
  {
    "id": 95,
    "agency": "경상북도 포항시청",
    "road_addr": "경상북도 포항시 남구 상도로66번길 17 (상도동)",
    "street_addr": "경상북도 포항시 남구 상도동 617-10",
    "objective": "생활방범",
    "cnt": 1,
    "shoot_direction": "실크로드",
    "install_time": "2015-12",
    "latitude": 36.0137,
    "longitude": 129.3566
  },
  {
    "id": 96,
    "agency": "경상북도 포항시청",
    "road_addr": "경상북도 포항시 남구 양학천로136번길 9-12 (대도동)",
    "street_addr": "경상북도 포항시 남구 대도동 16-7",
    "objective": "생활방범",
    "cnt": 2,
    "shoot_direction": "라메종원룸",
    "install_time": "2015-12",
    "latitude": 36.0254,
    "longitude": 129.3621
  },
  {
    "id": 97,
    "agency": "경상북도 포항시청",
    "road_addr": "경상북도 포항시 남구 상공로92번길 14-6 (대도동)",
    "street_addr": "경상북도 포항시 남구 대도동 135-96",
    "objective": "생활방범",
    "cnt": 2,
    "shoot_direction": "상도중정문",
    "install_time": "2015-12",
    "latitude": 36.015,
    "longitude": 129.3604
  },
  {
    "id": 98,
    "agency": "경상북도 포항시청",
    "road_addr": "경상북도 포항시 남구 대해로79번길 35 (대도동)",
    "street_addr": "경상북도 포항시 남구 대도동 21-28",
    "objective": "생활방범",
    "cnt": 2,
    "shoot_direction": "쌩큐마트",
    "install_time": "2015-12",
    "latitude": 36.0255,
    "longitude": 129.3637
  },
  {
    "id": 99,
    "agency": "경상북도 포항시청",
    "road_addr": "경상북도 포항시 남구 상공로174번길 8-4 (대도동)",
    "street_addr": "경상북도 포항시 남구 대도동 70-9",
    "objective": "생활방범",
    "cnt": 1,
    "shoot_direction": "하늘채빌",
    "install_time": "2015-12",
    "latitude": 36.0208,
    "longitude": 129.3651
  },
  {
    "id": 100,
    "agency": "경상북도 포항시청",
    "road_addr": "경상북도 포항시 남구 상공로18번길 70-9 (대도동, 대도연립주택)",
    "street_addr": "경상북도 포항시 남구 대도동 165-3",
    "objective": "생활방범",
    "cnt": 3,
    "shoot_direction": "대도연립부근",
    "install_time": "2015-12",
    "latitude": 36.011,
    "longitude": 129.3634
  },
  {
    "id": 101,
    "agency": "경상북도 포항시청",
    "road_addr": null,
    "street_addr": "경상북도 포항시 북구 용흥동 264-6",
    "objective": "생활방범",
    "cnt": 3,
    "shoot_direction": "옛황토집뒷편산책로",
    "install_time": "2021-08",
    "latitude": 36.0289,
    "longitude": 129.3551
  },
  {
    "id": 102,
    "agency": "경상북도 포항시청",
    "road_addr": "경상북도 포항시 북구 대안길 174 (용흥동)",
    "street_addr": "경상북도 포항시 북구 용흥동 582-2",
    "objective": "생활방범",
    "cnt": 2,
    "shoot_direction": "대안지체육공원",
    "install_time": "2021-08",
    "latitude": 36.0494,
    "longitude": 129.3437
  },
  {
    "id": 103,
    "agency": "경상북도 포항시청",
    "road_addr": "경상북도 포항시 북구 새천년대로 593 (용흥동)",
    "street_addr": "경상북도 포항시 북구 용흥동 618-43",
    "objective": "생활방범",
    "cnt": 2,
    "shoot_direction": "한국타이어",
    "install_time": "2020-07",
    "latitude": 36.0272,
    "longitude": 129.3542
  },
  {
    "id": 104,
    "agency": "경상북도 포항시청",
    "road_addr": null,
    "street_addr": "경상북도 포항시 북구 용흥동 332-17",
    "objective": "생활방범",
    "cnt": 2,
    "shoot_direction": "할매추어탕",
    "install_time": "2020-07",
    "latitude": 36.0356,
    "longitude": 129.353
  },
  {
    "id": 105,
    "agency": "경상북도 포항시청",
    "road_addr": "경상북도 포항시 북구 우미길 93 (용흥동)",
    "street_addr": "경상북도 포항시 북구 용흥동 592-1",
    "objective": "생활방범",
    "cnt": 3,
    "shoot_direction": "경북교육청과학원",
    "install_time": "2020-07",
    "latitude": 36.047,
    "longitude": 129.3538
  },
  {
    "id": 106,
    "agency": "경상북도 포항시청",
    "road_addr": "경상북도 포항시 북구 용당로 38-15 (용흥동)",
    "street_addr": "경상북도 포항시 북구 용흥동 120-9",
    "objective": "생활방범",
    "cnt": 2,
    "shoot_direction": "동부빌라",
    "install_time": "2019-07",
    "latitude": 36.0309,
    "longitude": 129.3591
  },
  {
    "id": 107,
    "agency": "경상북도 포항시청",
    "road_addr": "경상북도 포항시 북구 새마을로29번길 3-2 (용흥동)",
    "street_addr": "경상북도 포항시 북구 용흥동 64-12",
    "objective": "생활방범",
    "cnt": 2,
    "shoot_direction": "할매식당",
    "install_time": "2019-07",
    "latitude": 36.0383,
    "longitude": 129.3563
  },
  {
    "id": 108,
    "agency": "경상북도 포항시청",
    "road_addr": null,
    "street_addr": "경상북도 포항시 북구 용흥동 43-3",
    "objective": "생활방범",
    "cnt": 2,
    "shoot_direction": "서산터널",
    "install_time": "2019-07",
    "latitude": 36.0431,
    "longitude": 129.3598
  },
  {
    "id": 109,
    "agency": "경상북도 포항시청",
    "road_addr": "경상북도 포항시 북구 탑산길 42 (용흥동)",
    "street_addr": "경상북도 포항시 북구 용흥동 314-5",
    "objective": "생활방범",
    "cnt": 3,
    "shoot_direction": "포항의료원장례식장",
    "install_time": "2018-06",
    "latitude": 36.036,
    "longitude": 129.354
  },
  {
    "id": 110,
    "agency": "경상북도 포항시청",
    "road_addr": null,
    "street_addr": "경상북도 포항시 북구 용흥동 산 128-32",
    "objective": "생활방범",
    "cnt": 2,
    "shoot_direction": "경동하이츠15차",
    "install_time": "2018-06",
    "latitude": 36.0366,
    "longitude": 129.3497
  },
  {
    "id": 111,
    "agency": "경상북도 포항시청",
    "road_addr": "경상북도 포항시 북구 양학로10번길 24 (용흥동)",
    "street_addr": "경상북도 포항시 북구 용흥동 618-31",
    "objective": "생활방범",
    "cnt": 3,
    "shoot_direction": "피스아이원룸",
    "install_time": "2018-06",
    "latitude": 36.0266,
    "longitude": 129.3529
  },
  {
    "id": 112,
    "agency": "경상북도 포항시청",
    "road_addr": "경상북도 포항시 북구 용당로 71-7 (용흥동)",
    "street_addr": "경상북도 포항시 북구 용흥동 114-6",
    "objective": "생활방범",
    "cnt": 2,
    "shoot_direction": "골목",
    "install_time": "2018-06",
    "latitude": 36.0343,
    "longitude": 129.3598
  },
  {
    "id": 113,
    "agency": "경상북도 포항시청",
    "road_addr": "경상북도 포항시 북구 중흥로213번길 43 (용흥동)",
    "street_addr": "경상북도 포항시 북구 용흥동 625-15",
    "objective": "생활방범",
    "cnt": 2,
    "shoot_direction": "금잔디맨션앞",
    "install_time": "2017-06",
    "latitude": 36.0247,
    "longitude": 129.3537
  },
  {
    "id": 114,
    "agency": "경상북도 포항시청",
    "road_addr": "경상북도 포항시 북구 중흥로225번길 46 (용흥동, 영진맨션)",
    "street_addr": "경상북도 포항시 북구 용흥동 620-7",
    "objective": "생활방범",
    "cnt": 3,
    "shoot_direction": "영진맨션앞",
    "install_time": "2017-06",
    "latitude": 36.0257,
    "longitude": 129.3545
  },
  {
    "id": 115,
    "agency": "경상북도 포항시청",
    "road_addr": null,
    "street_addr": "경상북도 포항시 북구 용흥동 93-36",
    "objective": "생활방범",
    "cnt": 2,
    "shoot_direction": "코사마트앞(탑산)",
    "install_time": "2014-08",
    "latitude": 36.0352,
    "longitude": 129.3573
  },
  {
    "id": 116,
    "agency": "경상북도 포항시청",
    "road_addr": null,
    "street_addr": "경상북도 포항시 북구 용흥동 산 105-33",
    "objective": "생활방범",
    "cnt": 2,
    "shoot_direction": "용흥동주민센터",
    "install_time": "2013-12",
    "latitude": 36.0379,
    "longitude": 129.358
  },
  {
    "id": 117,
    "agency": "경상북도 포항시청",
    "road_addr": "경상북도 포항시 북구 중흥로213번길 38-2 (죽도동)",
    "street_addr": "경상북도 포항시 북구 죽도동 622-35",
    "objective": "생활방범",
    "cnt": 2,
    "shoot_direction": "한신설비",
    "install_time": "2019-07",
    "latitude": 36.0247,
    "longitude": 129.3546
  },
  {
    "id": 118,
    "agency": "경상북도 포항시청",
    "road_addr": "경상북도 포항시 남구 형산강북로 131 (효자동)",
    "street_addr": "경상북도 포항시 남구 효자동 608",
    "objective": "생활방범",
    "cnt": 2,
    "shoot_direction": "포스코엠텍",
    "install_time": "2010-07",
    "latitude": 36.0042,
    "longitude": 129.3406
  },
  {
    "id": 119,
    "agency": "경상북도 포항시청",
    "road_addr": null,
    "street_addr": "경상북도 포항시 북구 환여동 516-5",
    "objective": "생활방범",
    "cnt": 3,
    "shoot_direction": "팔복교회",
    "install_time": "2021-08",
    "latitude": 36.073,
    "longitude": 129.3973
  },
  {
    "id": 120,
    "agency": "경상북도 포항시청",
    "road_addr": null,
    "street_addr": "경상북도 포항시 북구 여남동 368-11",
    "objective": "생활방범",
    "cnt": 3,
    "shoot_direction": "해양과학고등학교",
    "install_time": "2021-08",
    "latitude": 36.0739,
    "longitude": 129.4074
  },
  {
    "id": 121,
    "agency": "경상북도 포항시청",
    "road_addr": null,
    "street_addr": "경상북도 포항시 북구 환호동 148",
    "objective": "생활방범",
    "cnt": 4,
    "shoot_direction": "도노카페",
    "install_time": "2019-07",
    "latitude": 36.0727,
    "longitude": 129.4053
  },
  {
    "id": 122,
    "agency": "경상북도 포항시청",
    "road_addr": null,
    "street_addr": "경상북도 포항시 북구 환여동 396-9",
    "objective": "생활방범",
    "cnt": 2,
    "shoot_direction": "환호공원앞삼거리",
    "install_time": "2018-06",
    "latitude": 36.0684,
    "longitude": 129.3939
  },
  {
    "id": 123,
    "agency": "경상북도 포항시청",
    "road_addr": null,
    "street_addr": "경상북도 포항시 북구 환여동 516-19",
    "objective": "생활방범",
    "cnt": 2,
    "shoot_direction": "환여빌라",
    "install_time": "2018-06",
    "latitude": 36.0723,
    "longitude": 129.3991
  },
  {
    "id": 124,
    "agency": "경상북도 포항시청",
    "road_addr": null,
    "street_addr": "경상북도 포항시 북구 환호동 484-1",
    "objective": "생활방범",
    "cnt": 2,
    "shoot_direction": "동산수산삼거리",
    "install_time": "2016-08",
    "latitude": 36.0721,
    "longitude": 129.4067
  },
  {
    "id": 125,
    "agency": "경상북도 포항시청",
    "road_addr": null,
    "street_addr": "경상북도 포항시 북구 여남동 135-17",
    "objective": "생활방범",
    "cnt": 2,
    "shoot_direction": "여남횟집",
    "install_time": "2016-08",
    "latitude": 36.0731,
    "longitude": 129.4114
  },
  {
    "id": 126,
    "agency": "경상북도 포항시청",
    "road_addr": "경상북도 포항시 북구 삼호로 489 (환호동)",
    "street_addr": "경상북도 포항시 북구 환호동 496-9",
    "objective": "생활방범",
    "cnt": 2,
    "shoot_direction": "전원빌라",
    "install_time": "2015-02",
    "latitude": 36.0714,
    "longitude": 129.3986
  },
  {
    "id": 127,
    "agency": "경상북도 포항시청",
    "road_addr": "경상북도 포항시 북구 삼호로 455-6 (환호동, 명진빌라)",
    "street_addr": "경상북도 포항시 북구 환호동 508-5",
    "objective": "생활방범",
    "cnt": 2,
    "shoot_direction": "동흥빌라",
    "install_time": "2015-02",
    "latitude": 36.07,
    "longitude": 129.3976
  },
  {
    "id": 128,
    "agency": "경상북도 포항시청",
    "road_addr": "경상북도 포항시 북구 삼호로 518 (환호동, 대동빌라)",
    "street_addr": "경상북도 포항시 북구 환호동 489",
    "objective": "생활방범",
    "cnt": 2,
    "shoot_direction": "대동빌라",
    "install_time": "2017-07",
    "latitude": 36.0741,
    "longitude": 129.3984
  },
  {
    "id": 129,
    "agency": "경상북도 포항시청",
    "road_addr": "경상북도 포항시 북구 삼호로473번길 4-10 (환호동, 환호오피스텔)",
    "street_addr": "경상북도 포항시 북구 환호동 502-5",
    "objective": "생활방범",
    "cnt": 1,
    "shoot_direction": "환호아주종합시장",
    "install_time": "2015-07",
    "latitude": 36.0708,
    "longitude": 129.3989
  },
  {
    "id": 130,
    "agency": "경상북도 포항시청",
    "road_addr": null,
    "street_addr": "경상북도 포항시 북구 환호동 303-1",
    "objective": "생활방범",
    "cnt": 2,
    "shoot_direction": "해맞이빌",
    "install_time": "2015-07",
    "latitude": 36.0685,
    "longitude": 129.3969
  },
  {
    "id": 131,
    "agency": "경상북도 포항시청",
    "road_addr": "경상북도 포항시 북구 삼호로 484 (환호동)",
    "street_addr": "경상북도 포항시 북구 환호동 498-10",
    "objective": "생활방범",
    "cnt": 2,
    "shoot_direction": "영재서점문구",
    "install_time": "2017-07",
    "latitude": 36.071,
    "longitude": 129.3994
  },
  {
    "id": 132,
    "agency": "경상북도 포항시청",
    "road_addr": "경상북도 포항시 북구 삼호로501번길 4 (환호동)",
    "street_addr": "경상북도 포항시 북구 환호동 492-14",
    "objective": "생활방범",
    "cnt": 2,
    "shoot_direction": "환호빌라",
    "install_time": "2016-07",
    "latitude": 36.0724,
    "longitude": 129.3978
  },
  {
    "id": 133,
    "agency": "경상북도 포항시청",
    "road_addr": "경상북도 포항시 북구 삼호로 434-14 (환호동)",
    "street_addr": "경상북도 포항시 북구 환호동 321-1",
    "objective": "생활방범",
    "cnt": 2,
    "shoot_direction": "해변빌라",
    "install_time": "2015-12",
    "latitude": 36.0686,
    "longitude": 129.3951
  },
  {
    "id": 134,
    "agency": "경상북도 포항시청",
    "road_addr": null,
    "street_addr": "경상북도 포항시 남구 호미곶면 구만리 481-7",
    "objective": "생활방범",
    "cnt": 3,
    "shoot_direction": "까꾸리개삼거리",
    "install_time": "2021-08",
    "latitude": 36.0841,
    "longitude": 129.5507
  },
  {
    "id": 135,
    "agency": "경상북도 포항시청",
    "road_addr": null,
    "street_addr": "경상북도 포항시 남구 호미곶면 강사리 1141-1",
    "objective": "생활방범",
    "cnt": 2,
    "shoot_direction": "강사저수지",
    "install_time": "2019-07",
    "latitude": 36.0327,
    "longitude": 129.5677
  },
  {
    "id": 136,
    "agency": "경상북도 포항시청",
    "road_addr": "경상북도 포항시 북구 중흥로267번길 15-1 (죽도동)",
    "street_addr": "경상북도 포항시 북구 죽도동 208-1",
    "objective": "생활방범",
    "cnt": 3,
    "shoot_direction": "아이존",
    "install_time": "2019-07",
    "latitude": 36.0273,
    "longitude": 129.3595
  },
  {
    "id": 137,
    "agency": "경상북도 포항시청",
    "road_addr": "경상북도 포항시 북구 대해로 13-4 (죽도동)",
    "street_addr": "경상북도 포항시 북구 죽도동 611-3",
    "objective": "생활방범",
    "cnt": 2,
    "shoot_direction": "돈치킨",
    "install_time": "2019-07",
    "latitude": 36.0264,
    "longitude": 129.3559
  },
  {
    "id": 138,
    "agency": "경상북도 포항시청",
    "road_addr": "경상북도 포항시 북구 중흥로151번길 44 (죽도동)",
    "street_addr": "경상북도 포항시 북구 죽도동 663-14",
    "objective": "생활방범",
    "cnt": 1,
    "shoot_direction": "부자마을원룸",
    "install_time": "2018-06",
    "latitude": 36.0203,
    "longitude": 129.3502
  },
  {
    "id": 139,
    "agency": "경상북도 포항시청",
    "road_addr": "경상북도 포항시 북구 죽도로20번길 34-1 (죽도동)",
    "street_addr": "경상북도 포항시 북구 죽도동 85-11",
    "objective": "생활방범",
    "cnt": 3,
    "shoot_direction": "로얄하이츠가동",
    "install_time": "2018-06",
    "latitude": 36.0318,
    "longitude": 129.3612
  },
  {
    "id": 140,
    "agency": "경상북도 포항시청",
    "road_addr": "경상북도 포항시 북구 중흥로162번길 8-1 (죽도동)",
    "street_addr": "경상북도 포항시 북구 죽도동 656-1",
    "objective": "생활방범",
    "cnt": 2,
    "shoot_direction": "레몬트리원룸",
    "install_time": "2018-06",
    "latitude": 36.0183,
    "longitude": 129.3555
  },
  {
    "id": 141,
    "agency": "경상북도 포항시청",
    "road_addr": "경상북도 포항시 북구 죽도로 13-9 (죽도동)",
    "street_addr": "경상북도 포항시 북구 죽도동 158-46",
    "objective": "생활방범",
    "cnt": 2,
    "shoot_direction": "대성전기상사",
    "install_time": "2018-06",
    "latitude": 36.0352,
    "longitude": 129.3637
  },
  {
    "id": 142,
    "agency": "경상북도 포항시청",
    "road_addr": "경상북도 포항시 북구 죽도로28번길 15-6 (죽도동)",
    "street_addr": "경상북도 포항시 북구 죽도동 74-15",
    "objective": "생활방범",
    "cnt": 2,
    "shoot_direction": "현대목욕탕뒷길",
    "install_time": "2018-06",
    "latitude": 36.0325,
    "longitude": 129.3636
  },
  {
    "id": 143,
    "agency": "경상북도 포항시청",
    "road_addr": "경상북도 포항시 북구 죽도로40번길 44-9 (죽도동)",
    "street_addr": "경상북도 포항시 북구 죽도동 68-51",
    "objective": "생활방범",
    "cnt": 2,
    "shoot_direction": "티파니원룸",
    "install_time": "2018-06",
    "latitude": 36.0301,
    "longitude": 129.3622
  },
  {
    "id": 144,
    "agency": "경상북도 포항시청",
    "road_addr": "경상북도 포항시 북구 죽도로28번길 29 (죽도동)",
    "street_addr": "경상북도 포항시 북구 죽도동 71-27",
    "objective": "생활방범",
    "cnt": 2,
    "shoot_direction": "양지칼국수",
    "install_time": "2018-06",
    "latitude": 36.0316,
    "longitude": 129.3622
  },
  {
    "id": 145,
    "agency": "경상북도 포항시청",
    "road_addr": "경상북도 포항시 북구 중흥로139번길 11-2 (죽도동)",
    "street_addr": "경상북도 포항시 북구 죽도동 675-27",
    "objective": "생활방범",
    "cnt": 2,
    "shoot_direction": "칠성시장",
    "install_time": "2015-02",
    "latitude": 36.0175,
    "longitude": 129.3517
  },
  {
    "id": 146,
    "agency": "경상북도 포항시청",
    "road_addr": "경상북도 포항시 북구 중흥로255번길 10 (죽도동, 진주아파트)",
    "street_addr": "경상북도 포항시 북구 죽도동 208-5",
    "objective": "생활방범",
    "cnt": 3,
    "shoot_direction": "진주아파트",
    "install_time": "2014-08",
    "latitude": 36.0266,
    "longitude": 129.359
  },
  {
    "id": 147,
    "agency": "경상북도 포항시청",
    "road_addr": "경상북도 포항시 북구 중흥로330번길 15-1 (죽도동)",
    "street_addr": "경상북도 포항시 북구 죽도동 49-11",
    "objective": "생활방범",
    "cnt": 3,
    "shoot_direction": "홈플러스뒤",
    "install_time": "2015-02",
    "latitude": 36.03,
    "longitude": 129.3659
  },
  {
    "id": 148,
    "agency": "경상북도 포항시청",
    "road_addr": "경상북도 포항시 북구 희망대로659번길 81 (죽도동)",
    "street_addr": "경상북도 포항시 북구 죽도동 701-27",
    "objective": "생활방범",
    "cnt": 3,
    "shoot_direction": "한동직업전문학교",
    "install_time": "2015-02",
    "latitude": 36.017,
    "longitude": 129.3502
  },
  {
    "id": 149,
    "agency": "경상북도 포항시청",
    "road_addr": "경상북도 포항시 북구 두호로 24 (두호동)",
    "street_addr": "경상북도 포항시 북구 두호동 1026-7",
    "objective": "생활방범",
    "cnt": 4,
    "shoot_direction": "롯데리아옆",
    "install_time": "2015-02",
    "latitude": 36.0599,
    "longitude": 129.3759
  },
  {
    "id": 150,
    "agency": "경상북도 포항시청",
    "road_addr": "경상북도 포항시 북구 두호로52번길 20 (두호동)",
    "street_addr": "경상북도 포항시 북구 두호동 1024",
    "objective": "생활방범",
    "cnt": 1,
    "shoot_direction": "학산4공원",
    "install_time": "2019-07",
    "latitude": 36.061,
    "longitude": 129.3746
  },
  {
    "id": 151,
    "agency": "경상북도 포항시청",
    "road_addr": "경상북도 포항시 북구 삼흥로62번길 35 (두호동)",
    "street_addr": "경상북도 포항시 북구 두호동 1077-4",
    "objective": "생활방범",
    "cnt": 2,
    "shoot_direction": "명지파크",
    "install_time": "2015-02",
    "latitude": 36.0675,
    "longitude": 129.3827
  },
  {
    "id": 152,
    "agency": "경상북도 포항시청",
    "road_addr": "경상북도 포항시 북구 삼호로245번길 6 (두호동)",
    "street_addr": "경상북도 포항시 북구 두호동 1034-9",
    "objective": "생활방범",
    "cnt": 2,
    "shoot_direction": "GS25시북구두호점",
    "install_time": "2015-02",
    "latitude": 36.0604,
    "longitude": 129.3782
  },
  {
    "id": 153,
    "agency": "경상북도 포항시청",
    "road_addr": "경상북도 포항시 북구 삼흥로18번길 37 (두호동)",
    "street_addr": "경상북도 포항시 북구 두호동 1082-7",
    "objective": "생활방범",
    "cnt": 3,
    "shoot_direction": "산호그린맨션2차",
    "install_time": "2017-04",
    "latitude": 36.0663,
    "longitude": 129.3827
  },
  {
    "id": 154,
    "agency": "경상북도 포항시청",
    "road_addr": "경상북도 포항시 북구 두호로37번길 5-1 (두호동)",
    "street_addr": "경상북도 포항시 북구 두호동 1052-6",
    "objective": "생활방범",
    "cnt": 3,
    "shoot_direction": "대구은행",
    "install_time": "2016-01",
    "latitude": 36.0596,
    "longitude": 129.3742
  },
  {
    "id": 155,
    "agency": "경상북도 포항시청",
    "road_addr": null,
    "street_addr": "경상북도 포항시 북구 두호동 966",
    "objective": "생활방범",
    "cnt": 1,
    "shoot_direction": "대성빌라",
    "install_time": "2016-07",
    "latitude": 36.0622,
    "longitude": 129.3771
  },
  {
    "id": 156,
    "agency": "경상북도 포항시청",
    "road_addr": "경상북도 포항시 북구 해안로209번길 10-1 (두호동)",
    "street_addr": "경상북도 포항시 북구 두호동 231-2",
    "objective": "생활방범",
    "cnt": 2,
    "shoot_direction": "부국정밀",
    "install_time": "2016-07",
    "latitude": 36.0655,
    "longitude": 129.3862
  },
  {
    "id": 157,
    "agency": "경상북도 포항시청",
    "road_addr": "경상북도 포항시 북구 해안로 221 (두호동)",
    "street_addr": "경상북도 포항시 북구 두호동 139-2",
    "objective": "생활방범",
    "cnt": 2,
    "shoot_direction": "영일대펜션",
    "install_time": "2016-07",
    "latitude": 36.0643,
    "longitude": 129.3874
  },
  {
    "id": 158,
    "agency": "경상북도 포항시청",
    "road_addr": "경상북도 포항시 북구 삼흥로88번길 34 (두호동)",
    "street_addr": "경상북도 포항시 북구 두호동 1072-2",
    "objective": "생활방범",
    "cnt": 7,
    "shoot_direction": "화목교회",
    "install_time": "2015-12",
    "latitude": 36.0698,
    "longitude": 129.3832
  },
  {
    "id": 159,
    "agency": "경상북도 포항시청",
    "road_addr": null,
    "street_addr": "경상북도 포항시 북구 두호동 1027",
    "objective": "생활방범",
    "cnt": 3,
    "shoot_direction": "경인비취맨션",
    "install_time": "2015-12",
    "latitude": 36.0609,
    "longitude": 129.3763
  },
  {
    "id": 160,
    "agency": "경상북도 포항시청",
    "road_addr": null,
    "street_addr": "경상북도 포항시 북구 두호동 857-2",
    "objective": "생활방범",
    "cnt": 1,
    "shoot_direction": "씨하우스빌",
    "install_time": "2015-12",
    "latitude": 36.062,
    "longitude": 129.3775
  },
  {
    "id": 161,
    "agency": "경상북도 포항시청",
    "road_addr": "경상북도 포항시 남구 동해면 연오로 91 (포항코아루 블루인시티)",
    "street_addr": "경상북도 포항시 남구 동해면 신정리 527",
    "objective": "생활방범",
    "cnt": 4,
    "shoot_direction": "코아루아파트",
    "install_time": "2022-08",
    "latitude": 35.9818,
    "longitude": 129.4435
  },
  {
    "id": 162,
    "agency": "경상북도 포항시청",
    "road_addr": null,
    "street_addr": "경상북도 포항시 남구 동해면 도구리 687-8",
    "objective": "생활방범",
    "cnt": 4,
    "shoot_direction": "동해초사거리",
    "install_time": "2022-08",
    "latitude": 35.9869,
    "longitude": 129.4418
  },
  {
    "id": 163,
    "agency": "경상북도 포항시청",
    "road_addr": "경상북도 포항시 남구 동해면 일월로123번길 11",
    "street_addr": "경상북도 포항시 남구 동해면 약전리 408-5",
    "objective": "생활방범",
    "cnt": 3,
    "shoot_direction": "참뼈뒷편골목길",
    "install_time": "2021-08",
    "latitude": 35.9888,
    "longitude": 129.4469
  },
  {
    "id": 164,
    "agency": "경상북도 포항시청",
    "road_addr": null,
    "street_addr": "경상북도 포항시 남구 동해면 도구리 715-7",
    "objective": "생활방범",
    "cnt": 2,
    "shoot_direction": "수정빌라트",
    "install_time": "2020-07",
    "latitude": 35.9896,
    "longitude": 129.4436
  },
  {
    "id": 165,
    "agency": "경상북도 포항시청",
    "road_addr": null,
    "street_addr": "경상북도 포항시 남구 동해면 도구리 5-2",
    "objective": "생활방범",
    "cnt": 2,
    "shoot_direction": "도화아파트",
    "install_time": "2020-07",
    "latitude": 35.9888,
    "longitude": 129.4445
  },
  {
    "id": 166,
    "agency": "경상북도 포항시청",
    "road_addr": null,
    "street_addr": "경상북도 포항시 남구 동해면 약전리 420-3",
    "objective": "생활방범",
    "cnt": 3,
    "shoot_direction": "경동흑염소",
    "install_time": "2020-07",
    "latitude": 35.9879,
    "longitude": 129.4482
  },
  {
    "id": 167,
    "agency": "경상북도 포항시청",
    "road_addr": null,
    "street_addr": "경상북도 포항시 남구 동해면 흥환리 561-1",
    "objective": "생활방범",
    "cnt": 2,
    "shoot_direction": "중흥리마을회관",
    "install_time": "2019-07",
    "latitude": 36.0194,
    "longitude": 129.5039
  },
  {
    "id": 168,
    "agency": "경상북도 포항시청",
    "road_addr": "경상북도 포항시 남구 동해면 일월로81번길 36",
    "street_addr": "경상북도 포항시 남구 동해면 도구리 729-13",
    "objective": "생활방범",
    "cnt": 2,
    "shoot_direction": "도구해수욕장",
    "install_time": "2019-07",
    "latitude": 35.992,
    "longitude": 129.4426
  },
  {
    "id": 169,
    "agency": "경상북도 포항시청",
    "road_addr": "경상북도 포항시 남구 문예로70번길 23 (대도동)",
    "street_addr": "경상북도 포항시 남구 대도동 143-1",
    "objective": "생활방범",
    "cnt": 2,
    "shoot_direction": "형산시장부근",
    "install_time": "2015-12",
    "latitude": 36.0126,
    "longitude": 129.3661
  },
  {
    "id": 170,
    "agency": "경상북도 포항시청",
    "road_addr": "경상북도 포항시 남구 상공로92번길 9-2 (대도동)",
    "street_addr": "경상북도 포항시 남구 대도동 135-71",
    "objective": "생활방범",
    "cnt": 4,
    "shoot_direction": "상도중부근",
    "install_time": "2015-12",
    "latitude": 36.0156,
    "longitude": 129.3605
  },
  {
    "id": 171,
    "agency": "경상북도 포항시청",
    "road_addr": "경상북도 포항시 북구 삼흥로74번길 27 (두호동)",
    "street_addr": "경상북도 포항시 북구 두호동 1071-5",
    "objective": "생활방범",
    "cnt": 2,
    "shoot_direction": "한마음부동산",
    "install_time": "2022-08",
    "latitude": 36.0686,
    "longitude": 129.3818
  },
  {
    "id": 172,
    "agency": "경상북도 포항시청",
    "road_addr": null,
    "street_addr": "경상북도 포항시 북구 두호동 1090",
    "objective": "생활방범",
    "cnt": 3,
    "shoot_direction": "힐튼빌라",
    "install_time": "2021-08",
    "latitude": 36.0681,
    "longitude": 129.384
  },
  {
    "id": 173,
    "agency": "경상북도 포항시청",
    "road_addr": null,
    "street_addr": "경상북도 포항시 북구 두호동 1109-7",
    "objective": "생활방범",
    "cnt": 2,
    "shoot_direction": "쌈촌",
    "install_time": "2020-07",
    "latitude": 36.0658,
    "longitude": 129.3729
  },
  {
    "id": 174,
    "agency": "경상북도 포항시청",
    "road_addr": "경상북도 포항시 북구 삼흥로18번길 25 (두호동)",
    "street_addr": "경상북도 포항시 북구 두호동 1082-8",
    "objective": "생활방범",
    "cnt": 4,
    "shoot_direction": "대동신협",
    "install_time": "2020-07",
    "latitude": 36.0653,
    "longitude": 129.3817
  },
  {
    "id": 175,
    "agency": "경상북도 포항시청",
    "road_addr": null,
    "street_addr": "경상북도 포항시 북구 두호동 861-1",
    "objective": "생활방범",
    "cnt": 3,
    "shoot_direction": "삼화아파트",
    "install_time": "2019-07",
    "latitude": 36.0614,
    "longitude": 129.377
  },
  {
    "id": 176,
    "agency": "경상북도 포항시청",
    "road_addr": "경상북도 포항시 북구 삼호로265번길 26-8 (두호동)",
    "street_addr": "경상북도 포항시 북구 두호동 971",
    "objective": "생활방범",
    "cnt": 2,
    "shoot_direction": "학산사",
    "install_time": "2019-07",
    "latitude": 36.0625,
    "longitude": 129.3778
  },
  {
    "id": 177,
    "agency": "경상북도 포항시청",
    "road_addr": "경상북도 포항시 북구 삼흥로74번길 30 (두호동)",
    "street_addr": "경상북도 포항시 북구 두호동 1078-2",
    "objective": "생활방범",
    "cnt": 3,
    "shoot_direction": "두호4공원",
    "install_time": "2018-06",
    "latitude": 36.0686,
    "longitude": 129.3825
  },
  {
    "id": 178,
    "agency": "경상북도 포항시청",
    "road_addr": "경상북도 포항시 북구 삼호로217번길 15 (두호동)",
    "street_addr": "경상북도 포항시 북구 두호동 1043-1",
    "objective": "생활방범",
    "cnt": 4,
    "shoot_direction": "두호부영빌라",
    "install_time": "2018-06",
    "latitude": 36.0582,
    "longitude": 129.3758
  },
  {
    "id": 179,
    "agency": "경상북도 포항시청",
    "road_addr": "경상북도 포항시 북구 학전로111번길 22 (두호동)",
    "street_addr": "경상북도 포항시 북구 두호동 1104-6",
    "objective": "생활방범",
    "cnt": 3,
    "shoot_direction": "두호고등학교",
    "install_time": "2018-06",
    "latitude": 36.063,
    "longitude": 129.3741
  },
  {
    "id": 180,
    "agency": "경상북도 포항시청",
    "road_addr": null,
    "street_addr": "경상북도 포항시 북구 두호동 26-2",
    "objective": "생활방범",
    "cnt": 1,
    "shoot_direction": "환호공원주차장",
    "install_time": "2016-08",
    "latitude": 36.0635,
    "longitude": 129.3925
  },
  {
    "id": 181,
    "agency": "경상북도 포항시청",
    "road_addr": null,
    "street_addr": "경상북도 포항시 남구 호미곶면 대동배리 24-2",
    "objective": "생활방범",
    "cnt": 2,
    "shoot_direction": "대동배2리마을회관",
    "install_time": "2019-07",
    "latitude": 36.0649,
    "longitude": 129.5409
  },
  {
    "id": 182,
    "agency": "경상북도 포항시청",
    "road_addr": null,
    "street_addr": "경상북도 포항시 남구 호미곶면 구만리 61-2",
    "objective": "생활방범",
    "cnt": 2,
    "shoot_direction": "디오펜션",
    "install_time": "2019-07",
    "latitude": 36.0809,
    "longitude": 129.5597
  },
  {
    "id": 183,
    "agency": "경상북도 포항시청",
    "road_addr": null,
    "street_addr": "경상북도 포항시 남구 호미곶면 대보리 286-33",
    "objective": "생활방범",
    "cnt": 3,
    "shoot_direction": "등대슈퍼",
    "install_time": "2018-06",
    "latitude": 36.0764,
    "longitude": 129.5641
  },
  {
    "id": 184,
    "agency": "경상북도 포항시청",
    "road_addr": null,
    "street_addr": "경상북도 포항시 남구 호미곶면 구만리 175-6",
    "objective": "생활방범",
    "cnt": 2,
    "shoot_direction": "분월포항부근",
    "install_time": "2018-06",
    "latitude": 36.0751,
    "longitude": 129.545
  },
  {
    "id": 185,
    "agency": "경상북도 포항시청",
    "road_addr": "경상북도 포항시 남구 호미곶면 해맞이로 195-1",
    "street_addr": "경상북도 포항시 남구 호미곶면 대보리 863-4",
    "objective": "생활방범",
    "cnt": 2,
    "shoot_direction": "호미곶우체국",
    "install_time": "2015-02",
    "latitude": 36.0786,
    "longitude": 129.56
  },
  {
    "id": 186,
    "agency": "경상북도 포항시청",
    "road_addr": null,
    "street_addr": "경상북도 포항시 남구 호미곶면 대동배리 105-2",
    "objective": "생활방범",
    "cnt": 2,
    "shoot_direction": "대동배리버스승강장",
    "install_time": "2017-04",
    "latitude": 36.06,
    "longitude": 129.5335
  },
  {
    "id": 187,
    "agency": "경상북도 포항시청",
    "road_addr": null,
    "street_addr": "경상북도 포항시 남구 호미곶면 대보리 256-3",
    "objective": "생활방범",
    "cnt": 2,
    "shoot_direction": "대보2리마을",
    "install_time": "2016-07",
    "latitude": 36.0778,
    "longitude": 129.5618
  },
  {
    "id": 188,
    "agency": "경상북도 포항시청",
    "road_addr": null,
    "street_addr": "경상북도 포항시 남구 호미곶면 대보리 234-19",
    "objective": "생활방범",
    "cnt": 2,
    "shoot_direction": "호미곶광장",
    "install_time": "2015-12",
    "latitude": 36.077,
    "longitude": 129.5694
  },
  {
    "id": 189,
    "agency": "경상북도 포항시청",
    "road_addr": null,
    "street_addr": "경상북도 포항시 남구 호미곶면 대보리 산 62-4",
    "objective": "생활방범",
    "cnt": 1,
    "shoot_direction": "해오름민박",
    "install_time": "2015-12",
    "latitude": 36.0655,
    "longitude": 129.5697
  },
  {
    "id": 190,
    "agency": "경상북도 포항시청",
    "road_addr": "경상북도 포항시 남구 해동로96번길 3-1 (해도동)",
    "street_addr": "경상북도 포항시 남구 해도동 19-27",
    "objective": "생활방범",
    "cnt": 2,
    "shoot_direction": "주택가",
    "install_time": "2022-08",
    "latitude": 36.0282,
    "longitude": 129.3725
  },
  {
    "id": 191,
    "agency": "경상북도 포항시청",
    "road_addr": "경상북도 포항시 남구 상공로233번길 33-11 (해도동)",
    "street_addr": "경상북도 포항시 남구 해도동 415-60",
    "objective": "생활방범",
    "cnt": 2,
    "shoot_direction": "주택가",
    "install_time": "2022-08",
    "latitude": 36.0259,
    "longitude": 129.3699
  },
  {
    "id": 192,
    "agency": "경상북도 포항시청",
    "road_addr": "경상북도 포항시 남구 상공로234번길 35-1 (해도동)",
    "street_addr": "경상북도 포항시 남구 해도동 66-22",
    "objective": "생활방범",
    "cnt": 2,
    "shoot_direction": "형산세탁",
    "install_time": "2022-08",
    "latitude": 36.0197,
    "longitude": 129.3721
  },
  {
    "id": 193,
    "agency": "경상북도 포항시청",
    "road_addr": "경상북도 포항시 남구 해동로96번길 18 (해도동)",
    "street_addr": "경상북도 포항시 남구 해도동 1-210",
    "objective": "생활방범",
    "cnt": 2,
    "shoot_direction": "포항운하주차장",
    "install_time": "2021-08",
    "latitude": 36.0282,
    "longitude": 129.374
  },
  {
    "id": 194,
    "agency": "경상북도 포항시청",
    "road_addr": "경상북도 포항시 북구 양덕로30번길 13 (양덕동)",
    "street_addr": "경상북도 포항시 북구 양덕동 1779",
    "objective": "어린이보호",
    "cnt": 1,
    "shoot_direction": "양덕초등삼거리",
    "install_time": "2010-05",
    "latitude": 36.0812,
    "longitude": 129.4036
  },
  {
    "id": 195,
    "agency": "경상북도 포항시청",
    "road_addr": null,
    "street_addr": "경상북도 포항시 북구 양덕동 1196",
    "objective": "어린이보호",
    "cnt": 3,
    "shoot_direction": "양덕1어린이공원",
    "install_time": "2014-09",
    "latitude": 36.0859,
    "longitude": 129.3932
  },
  {
    "id": 196,
    "agency": "경상북도 포항시청",
    "road_addr": null,
    "street_addr": "경상북도 포항시 북구 양덕동 336-4",
    "objective": "어린이보호",
    "cnt": 1,
    "shoot_direction": "송곡초등학교",
    "install_time": "2009-06",
    "latitude": 36.0911,
    "longitude": 129.3849
  },
  {
    "id": 197,
    "agency": "경상북도 포항시청",
    "road_addr": null,
    "street_addr": "경상북도 포항시 북구 양덕동 1533",
    "objective": "어린이보호",
    "cnt": 2,
    "shoot_direction": "양덕2공원",
    "install_time": "2019-07",
    "latitude": 36.0792,
    "longitude": 129.3988
  },
  {
    "id": 198,
    "agency": "경상북도 포항시청",
    "road_addr": "경상북도 포항시 북구 삼흥로 79-20 (장성동)",
    "street_addr": "경상북도 포항시 북구 장성동 1365-1",
    "objective": "어린이보호",
    "cnt": 2,
    "shoot_direction": "두호3공원",
    "install_time": "2013-08",
    "latitude": 36.0697,
    "longitude": 129.3785
  },
  {
    "id": 199,
    "agency": "경상북도 포항시청",
    "road_addr": "경상북도 포항시 북구 새천년대로 1201-26 (장성동)",
    "street_addr": "경상북도 포항시 북구 장성동 458-7",
    "objective": "어린이보호",
    "cnt": 2,
    "shoot_direction": "동산유치원입구",
    "install_time": "2014-09",
    "latitude": 36.0732,
    "longitude": 129.3782
  },
  {
    "id": 200,
    "agency": "경상북도 포항시청",
    "road_addr": "경상북도 포항시 북구 성실로33번길 11 (장성동)",
    "street_addr": "경상북도 포항시 북구 장성동 866-206",
    "objective": "어린이보호",
    "cnt": 2,
    "shoot_direction": "창포7공원",
    "install_time": "2014-08",
    "latitude": 36.0658,
    "longitude": 129.3745
  },
  {
    "id": 201,
    "agency": "경상북도 포항시청",
    "road_addr": null,
    "street_addr": "경상북도 포항시 북구 장성동 1354-1",
    "objective": "어린이보호",
    "cnt": 3,
    "shoot_direction": "두호6공원",
    "install_time": "2015-02",
    "latitude": 36.0663,
    "longitude": 129.3804
  },
  {
    "id": 202,
    "agency": "경상북도 포항시청",
    "road_addr": null,
    "street_addr": "경상북도 포항시 북구 장성동 866-68",
    "objective": "어린이보호",
    "cnt": 1,
    "shoot_direction": "장성8공원",
    "install_time": "2014-08",
    "latitude": 36.0666,
    "longitude": 129.3769
  },
  {
    "id": 203,
    "agency": "경상북도 포항시청",
    "road_addr": "경상북도 포항시 북구 장량주택로14번길 12-4 (양덕동)",
    "street_addr": "경상북도 포항시 북구 양덕동 773-4",
    "objective": "어린이보호",
    "cnt": 3,
    "shoot_direction": "장량4어린이공원",
    "install_time": "2016-08",
    "latitude": 36.0878,
    "longitude": 129.3909
  },
  {
    "id": 204,
    "agency": "경상북도 포항시청",
    "road_addr": "경상북도 포항시 북구 양덕로30번길 38-22 (양덕동)",
    "street_addr": "경상북도 포항시 북구 양덕동 1932-2",
    "objective": "어린이보호",
    "cnt": 2,
    "shoot_direction": "아름어린이집",
    "install_time": "2016-08",
    "latitude": 36.0802,
    "longitude": 129.4064
  },
  {
    "id": 205,
    "agency": "경상북도 포항시청",
    "road_addr": null,
    "street_addr": "경상북도 포항시 북구 장성동 1422-10",
    "objective": "어린이보호",
    "cnt": 3,
    "shoot_direction": "상지유치원",
    "install_time": "2016-08",
    "latitude": 36.0805,
    "longitude": 129.3958
  },
  {
    "id": 206,
    "agency": "경상북도 포항시청",
    "road_addr": "경상북도 포항시 북구 장량로263번길 22 (양덕동)",
    "street_addr": "경상북도 포항시 북구 양덕동 2034",
    "objective": "어린이보호",
    "cnt": 2,
    "shoot_direction": "양덕4공원",
    "install_time": "2016-08",
    "latitude": 36.0841,
    "longitude": 129.4081
  },
  {
    "id": 207,
    "agency": "경상북도 포항시청",
    "road_addr": "경상북도 포항시 북구 장량로139번길 38 (양덕동)",
    "street_addr": "경상북도 포항시 북구 양덕동 1218",
    "objective": "어린이보호",
    "cnt": 2,
    "shoot_direction": "루체어린이집",
    "install_time": "2016-08",
    "latitude": 36.0849,
    "longitude": 129.3939
  },
  {
    "id": 208,
    "agency": "경상북도 포항시청",
    "road_addr": null,
    "street_addr": "경상북도 포항시 북구 장성동 산 222-74",
    "objective": "어린이보호",
    "cnt": 2,
    "shoot_direction": "우리아이유치원",
    "install_time": "2016-08",
    "latitude": 36.0886,
    "longitude": 129.3813
  },
  {
    "id": 209,
    "agency": "경상북도 포항시청",
    "road_addr": "경상북도 포항시 북구 삼흥로18번길 9 (장성동)",
    "street_addr": "경상북도 포항시 북구 장성동 1355-9",
    "objective": "어린이보호",
    "cnt": 3,
    "shoot_direction": "두호1어린이공원",
    "install_time": "2016-08",
    "latitude": 36.0645,
    "longitude": 129.3807
  },
  {
    "id": 210,
    "agency": "경상북도 포항시청",
    "road_addr": "경상북도 포항시 북구 장량로32번길 73 (장성동)",
    "street_addr": "경상북도 포항시 북구 장성동 1573-1",
    "objective": "어린이보호",
    "cnt": 2,
    "shoot_direction": "장성7어린이공원",
    "install_time": "2016-08",
    "latitude": 36.076,
    "longitude": 129.3841
  },
  {
    "id": 211,
    "agency": "경상북도 포항시청",
    "road_addr": "경상북도 포항시 북구 삼흥로233번길 8 (장성동)",
    "street_addr": "경상북도 포항시 북구 장성동 1579-4",
    "objective": "어린이보호",
    "cnt": 2,
    "shoot_direction": "키즈어린이집",
    "install_time": "2016-08",
    "latitude": 36.0828,
    "longitude": 129.3792
  },
  {
    "id": 212,
    "agency": "경상북도 포항시청",
    "road_addr": null,
    "street_addr": "경상북도 포항시 북구 장성동 1566-1",
    "objective": "어린이보호",
    "cnt": 4,
    "shoot_direction": "색동어린이집",
    "install_time": "2016-08",
    "latitude": 36.0772,
    "longitude": 129.3839
  },
  {
    "id": 213,
    "agency": "경상북도 포항시청",
    "road_addr": null,
    "street_addr": "경상북도 포항시 북구 장성동 1551-9",
    "objective": "어린이보호",
    "cnt": 3,
    "shoot_direction": "장성13어린이공원",
    "install_time": "2016-08",
    "latitude": 36.0784,
    "longitude": 129.3833
  },
  {
    "id": 214,
    "agency": "경상북도 포항시청",
    "road_addr": null,
    "street_addr": "경상북도 포항시 북구 양덕동 680-3",
    "objective": "어린이보호",
    "cnt": 3,
    "shoot_direction": "연오랑공원",
    "install_time": "2015-12",
    "latitude": 36.0886,
    "longitude": 129.3897
  },
  {
    "id": 215,
    "agency": "경상북도 포항시청",
    "road_addr": null,
    "street_addr": "경상북도 포항시 북구 양덕동 336-4",
    "objective": "어린이보호",
    "cnt": 2,
    "shoot_direction": "장량1공원",
    "install_time": "2015-12",
    "latitude": 36.091,
    "longitude": 129.3839
  },
  {
    "id": 216,
    "agency": "경상북도 포항시청",
    "road_addr": "경상북도 포항시 남구 동해면 호미로3192번길 109",
    "street_addr": "경상북도 포항시 남구 동해면 임곡리 256",
    "objective": "생활방범",
    "cnt": 2,
    "shoot_direction": "임곡2리마을회관",
    "install_time": "2018-06",
    "latitude": 35.9979,
    "longitude": 129.4581
  },
  {
    "id": 217,
    "agency": "경상북도 포항시청",
    "road_addr": null,
    "street_addr": "경상북도 포항시 남구 동해면 도구리 690-1",
    "objective": "생활방범",
    "cnt": 3,
    "shoot_direction": "대우세원빌",
    "install_time": "2018-06",
    "latitude": 35.9875,
    "longitude": 129.4434
  },
  {
    "id": 218,
    "agency": "경상북도 포항시청",
    "road_addr": "경상북도 포항시 남구 동해면 일월로71번길 20",
    "street_addr": "경상북도 포항시 남구 동해면 도구리 727-8",
    "objective": "생활방범",
    "cnt": 2,
    "shoot_direction": "도구별장맨션라동",
    "install_time": "2018-06",
    "latitude": 35.9904,
    "longitude": 129.4413
  },
  {
    "id": 219,
    "agency": "경상북도 포항시청",
    "road_addr": null,
    "street_addr": "경상북도 포항시 남구 동해면 도구리 737-14",
    "objective": "생활방범",
    "cnt": 2,
    "shoot_direction": "동성고등학교",
    "install_time": "2018-06",
    "latitude": 35.9909,
    "longitude": 129.4385
  },
  {
    "id": 220,
    "agency": "경상북도 포항시청",
    "road_addr": null,
    "street_addr": "경상북도 포항시 남구 동해면 석리 산 44-16",
    "objective": "생활방범",
    "cnt": 1,
    "shoot_direction": "삼양전원타운입구",
    "install_time": "2018-06",
    "latitude": 35.9892,
    "longitude": 129.4723
  },
  {
    "id": 221,
    "agency": "경상북도 포항시청",
    "road_addr": "경상북도 포항시 남구 동해면 호미로 3191",
    "street_addr": "경상북도 포항시 남구 동해면 임곡리 757-1",
    "objective": "생활방범",
    "cnt": 2,
    "shoot_direction": "임곡1리입구",
    "install_time": "2019-07",
    "latitude": 35.9908,
    "longitude": 129.4542
  },
  {
    "id": 222,
    "agency": "경상북도 포항시청",
    "road_addr": "경상북도 포항시 남구 동해면 일월로56번길 13",
    "street_addr": "경상북도 포항시 남구 동해면 도구리 668-1",
    "objective": "생활방범",
    "cnt": 2,
    "shoot_direction": "동해면사무소뒤",
    "install_time": "2015-02",
    "latitude": 35.9883,
    "longitude": 129.4401
  },
  {
    "id": 223,
    "agency": "경상북도 포항시청",
    "road_addr": "경상북도 포항시 남구 동해면 호미로2122번길 4",
    "street_addr": "경상북도 포항시 남구 동해면 발산리 109-6",
    "objective": "생활방범",
    "cnt": 2,
    "shoot_direction": "발산교",
    "install_time": "2017-04",
    "latitude": 36.0438,
    "longitude": 129.5176
  },
  {
    "id": 224,
    "agency": "경상북도 포항시청",
    "road_addr": "경상북도 포항시 남구 동해면 호미로2330번길 38",
    "street_addr": "경상북도 포항시 남구 동해면 발산리 300",
    "objective": "생활방범",
    "cnt": 2,
    "shoot_direction": "발산1리방파제",
    "install_time": "2017-04",
    "latitude": 36.0335,
    "longitude": 129.5042
  },
  {
    "id": 225,
    "agency": "경상북도 포항시청",
    "road_addr": "경상북도 포항시 남구 동해면 일월로 118",
    "street_addr": "경상북도 포항시 남구 동해면 약전리 403-8",
    "objective": "생활방범",
    "cnt": 3,
    "shoot_direction": "참뼈",
    "install_time": "2017-04",
    "latitude": 35.9878,
    "longitude": 129.4462
  },
  {
    "id": 226,
    "agency": "경상북도 포항시청",
    "road_addr": null,
    "street_addr": "경상북도 포항시 남구 동해면 상정리 444-2",
    "objective": "생활방범",
    "cnt": 2,
    "shoot_direction": "상정2리마을정자",
    "install_time": "2017-04",
    "latitude": 35.9846,
    "longitude": 129.4967
  },
  {
    "id": 227,
    "agency": "경상북도 포항시청",
    "road_addr": "경상북도 포항시 남구 동해면 일월로 172-1",
    "street_addr": "경상북도 포항시 남구 동해면 약전리 309-5",
    "objective": "생활방범",
    "cnt": 2,
    "shoot_direction": "약전코사마트",
    "install_time": "2016-01",
    "latitude": 35.9886,
    "longitude": 129.4519
  },
  {
    "id": 228,
    "agency": "경상북도 포항시청",
    "road_addr": null,
    "street_addr": "경상북도 포항시 남구 동해면 약전리 270-2",
    "objective": "생활방범",
    "cnt": 2,
    "shoot_direction": "원진사입구",
    "install_time": "2016-01",
    "latitude": 35.9851,
    "longitude": 129.4539
  },
  {
    "id": 229,
    "agency": "경상북도 포항시청",
    "road_addr": "경상북도 포항시 남구 동해면 일월로81번길 5-1",
    "street_addr": "경상북도 포항시 남구 동해면 도구리 722-6",
    "objective": "생활방범",
    "cnt": 2,
    "shoot_direction": "이화해변타운",
    "install_time": "2016-01",
    "latitude": 35.9892,
    "longitude": 129.4421
  },
  {
    "id": 230,
    "agency": "경상북도 포항시청",
    "road_addr": null,
    "street_addr": "경상북도 포항시 남구 동해면 상정리 349-4",
    "objective": "생활방범",
    "cnt": 2,
    "shoot_direction": "상정리마을입구",
    "install_time": "2016-01",
    "latitude": 35.9808,
    "longitude": 129.4953
  },
  {
    "id": 231,
    "agency": "경상북도 포항시청",
    "road_addr": null,
    "street_addr": "경상북도 포항시 남구 동해면 도구리 16-1",
    "objective": "생활방범",
    "cnt": 2,
    "shoot_direction": "리빙1차",
    "install_time": "2016-07",
    "latitude": 35.9868,
    "longitude": 129.4441
  },
  {
    "id": 232,
    "agency": "경상북도 포항시청",
    "road_addr": "경상북도 포항시 남구 동해면 일월로 44",
    "street_addr": "경상북도 포항시 남구 동해면 도구리 592-7",
    "objective": "생활방범",
    "cnt": 2,
    "shoot_direction": "시온교회",
    "install_time": "2016-07",
    "latitude": 35.9886,
    "longitude": 129.4376
  },
  {
    "id": 233,
    "agency": "경상북도 포항시청",
    "road_addr": null,
    "street_addr": "경상북도 포항시 남구 동해면 흥환리 587",
    "objective": "생활방범",
    "cnt": 2,
    "shoot_direction": "흥환리경로당",
    "install_time": "2015-12",
    "latitude": 36.0217,
    "longitude": 129.5045
  },
  {
    "id": 234,
    "agency": "경상북도 포항시청",
    "road_addr": "경상북도 포항시 남구 동해면 호미로2490번길 8",
    "street_addr": "경상북도 포항시 남구 동해면 흥환리 329-5",
    "objective": "생활방범",
    "cnt": 2,
    "shoot_direction": "흥환1리마을이장댁앞",
    "install_time": "2015-12",
    "latitude": 36.0248,
    "longitude": 129.5035
  },
  {
    "id": 235,
    "agency": "경상북도 포항시청",
    "road_addr": "경상북도 포항시 남구 동해면 약전로115번길 69",
    "street_addr": "경상북도 포항시 남구 동해면 신정리 208-1",
    "objective": "생활방범",
    "cnt": 2,
    "shoot_direction": "경포자동차학원",
    "install_time": "2015-12",
    "latitude": 35.9754,
    "longitude": 129.449
  },
  {
    "id": 236,
    "agency": "경상북도 포항시청",
    "road_addr": null,
    "street_addr": "경상북도 포항시 남구 동해면 금광리 633-4",
    "objective": "생활방범",
    "cnt": 2,
    "shoot_direction": "금광2리마을회관",
    "install_time": "2015-12",
    "latitude": 35.9667,
    "longitude": 129.4534
  },
  {
    "id": 237,
    "agency": "경상북도 포항시청",
    "road_addr": "경상북도 포항시 남구 동해면 호미로2790번길 11",
    "street_addr": "경상북도 포항시 남구 동해면 입암리 421",
    "objective": "생활방범",
    "cnt": 1,
    "shoot_direction": "입암2리마을회관",
    "install_time": "2015-12",
    "latitude": 36.0136,
    "longitude": 129.4774
  },
  {
    "id": 238,
    "agency": "경상북도 포항시청",
    "road_addr": null,
    "street_addr": "경상북도 포항시 남구 동해면 입암리 603-2",
    "objective": "생활방범",
    "cnt": 1,
    "shoot_direction": "입암1리마을회관",
    "install_time": "2015-12",
    "latitude": 36.008,
    "longitude": 129.468
  },
  {
    "id": 239,
    "agency": "경상북도 포항시청",
    "road_addr": null,
    "street_addr": "경상북도 포항시 남구 동해면 약전리 370-30",
    "objective": "생활방범",
    "cnt": 2,
    "shoot_direction": "면민운동장",
    "install_time": "2015-12",
    "latitude": 35.9903,
    "longitude": 129.4499
  },
  {
    "id": 240,
    "agency": "경상북도 포항시청",
    "road_addr": null,
    "street_addr": "경상북도 포항시 남구 동해면 도구리 626-2",
    "objective": "생활방범",
    "cnt": 2,
    "shoot_direction": "동성고동해중",
    "install_time": "2015-12",
    "latitude": 35.9894,
    "longitude": 129.439
  },
  {
    "id": 241,
    "agency": "경상북도 포항시청",
    "road_addr": null,
    "street_addr": "경상북도 포항시 남구 동해면 약전리 301-48",
    "objective": "생활방범",
    "cnt": 2,
    "shoot_direction": "약전3리마을회관",
    "install_time": "2015-12",
    "latitude": 35.989,
    "longitude": 129.4513
  },
  {
    "id": 242,
    "agency": "경상북도 포항시청",
    "road_addr": "경상북도 포항시 남구 대잠길 28 (대잠동)",
    "street_addr": "경상북도 포항시 남구 대잠동 752-1",
    "objective": "생활방범",
    "cnt": 2,
    "shoot_direction": "대잠가압장",
    "install_time": "2022-08",
    "latitude": 36.0122,
    "longitude": 129.3378
  },
  {
    "id": 243,
    "agency": "경상북도 포항시청",
    "road_addr": "경상북도 포항시 남구 새천년대로422번길 20 (대잠동)",
    "street_addr": "경상북도 포항시 남구 대잠동 954",
    "objective": "생활방범",
    "cnt": 4,
    "shoot_direction": "K모텔",
    "install_time": "2022-08",
    "latitude": 36.0125,
    "longitude": 129.346
  },
  {
    "id": 244,
    "agency": "경상북도 포항시청",
    "road_addr": "경상북도 포항시 남구 대이로60번길 20-2 (대잠동)",
    "street_addr": "경상북도 포항시 남구 대잠동 991-2",
    "objective": "생활방범",
    "cnt": 2,
    "shoot_direction": "대잠그린파크후문",
    "install_time": "2022-08",
    "latitude": 36.0208,
    "longitude": 129.3431
  },
  {
    "id": 245,
    "agency": "경상북도 포항시청",
    "road_addr": "경상북도 포항시 남구 대이로5번길 28 (대잠동)",
    "street_addr": "경상북도 포항시 남구 대잠동 980-1",
    "objective": "생활방범",
    "cnt": 4,
    "shoot_direction": "프린스빌",
    "install_time": "2021-08",
    "latitude": 36.0146,
    "longitude": 129.342
  },
  {
    "id": 246,
    "agency": "경상북도 포항시청",
    "road_addr": "경상북도 포항시 남구 중흥로73번길 16 (대잠동)",
    "street_addr": "경상북도 포항시 남구 대잠동 966-4",
    "objective": "생활방범",
    "cnt": 4,
    "shoot_direction": "삼송꾼만두",
    "install_time": "2020-07",
    "latitude": 36.0128,
    "longitude": 129.3479
  },
  {
    "id": 247,
    "agency": "경상북도 포항시청",
    "road_addr": "경상북도 포항시 남구 희망대로659번길 61 (대잠동)",
    "street_addr": "경상북도 포항시 남구 대잠동 921-10",
    "objective": "생활방범",
    "cnt": 2,
    "shoot_direction": "내추럴아이",
    "install_time": "2020-07",
    "latitude": 36.0154,
    "longitude": 129.3491
  },
  {
    "id": 248,
    "agency": "경상북도 포항시청",
    "road_addr": "경상북도 포항시 남구 대이로5번길 14 (대잠동)",
    "street_addr": "경상북도 포항시 남구 대잠동 977-5",
    "objective": "생활방범",
    "cnt": 4,
    "shoot_direction": "통막창",
    "install_time": "2020-07",
    "latitude": 36.0155,
    "longitude": 129.343
  },
  {
    "id": 249,
    "agency": "경상북도 포항시청",
    "road_addr": null,
    "street_addr": "경상북도 포항시 남구 대잠동 985-10",
    "objective": "생활방범",
    "cnt": 2,
    "shoot_direction": "대잠아델리아",
    "install_time": "2020-07",
    "latitude": 36.0182,
    "longitude": 129.3449
  },
  {
    "id": 250,
    "agency": "경상북도 포항시청",
    "road_addr": "경상북도 포항시 남구 대이로127번길 12-10 (이동)",
    "street_addr": "경상북도 포항시 남구 이동 659",
    "objective": "생활방범",
    "cnt": 2,
    "shoot_direction": "이동3공원",
    "install_time": "2019-07",
    "latitude": 36.0271,
    "longitude": 129.3397
  },
  {
    "id": 251,
    "agency": "경상북도 포항시청",
    "road_addr": "경상북도 포항시 남구 행복주택길29번길 3-5 (대잠동)",
    "street_addr": "경상북도 포항시 남구 대잠동 668-30",
    "objective": "생활방범",
    "cnt": 2,
    "shoot_direction": "668-30주택",
    "install_time": "2019-07",
    "latitude": 36.0143,
    "longitude": 129.3374
  },
  {
    "id": 252,
    "agency": "경상북도 포항시청",
    "road_addr": null,
    "street_addr": "경상북도 포항시 남구 대잠동 160-98",
    "objective": "생활방범",
    "cnt": 2,
    "shoot_direction": "산딸기치킨",
    "install_time": "2019-07",
    "latitude": 36.0137,
    "longitude": 129.3393
  },
  {
    "id": 253,
    "agency": "경상북도 포항시청",
    "road_addr": "경상북도 포항시 남구 대이로127번길 5 (이동)",
    "street_addr": "경상북도 포항시 남구 이동 661-5",
    "objective": "생활방범",
    "cnt": 2,
    "shoot_direction": "해피노래연습장",
    "install_time": "2018-06",
    "latitude": 36.0264,
    "longitude": 129.34
  },
  {
    "id": 254,
    "agency": "경상북도 포항시청",
    "road_addr": "경상북도 포항시 남구 대이로159번길 10 (이동)",
    "street_addr": "경상북도 포항시 남구 이동 651-19",
    "objective": "생활방범",
    "cnt": 4,
    "shoot_direction": "태평초",
    "install_time": "2018-06",
    "latitude": 36.0289,
    "longitude": 129.3382
  },
  {
    "id": 255,
    "agency": "경상북도 포항시청",
    "road_addr": "경상북도 포항시 남구 대이로 8 (대잠동, 동부하이빌)",
    "street_addr": "경상북도 포항시 남구 대잠동 971-5",
    "objective": "생활방범",
    "cnt": 3,
    "shoot_direction": "네이쳐파크",
    "install_time": "2018-06",
    "latitude": 36.0166,
    "longitude": 129.3438
  },
  {
    "id": 256,
    "agency": "경상북도 포항시청",
    "road_addr": "경상북도 포항시 남구 효자로77번길 14 (대잠동)",
    "street_addr": "경상북도 포항시 남구 대잠동 780-31",
    "objective": "생활방범",
    "cnt": 2,
    "shoot_direction": "효자웰빙아울렛",
    "install_time": "2018-06",
    "latitude": 36.0117,
    "longitude": 129.3349
  },
  {
    "id": 257,
    "agency": "경상북도 포항시청",
    "road_addr": "경상북도 포항시 남구 대이로60번길 4-1 (대잠동)",
    "street_addr": "경상북도 포항시 남구 대잠동 994-17",
    "objective": "생활방범",
    "cnt": 3,
    "shoot_direction": "해오름빌앞",
    "install_time": "2017-06",
    "latitude": 36.0205,
    "longitude": 129.3414
  },
  {
    "id": 258,
    "agency": "경상북도 포항시청",
    "road_addr": "경상북도 포항시 남구 새천년대로422번길 12-5 (대잠동)",
    "street_addr": "경상북도 포항시 남구 대잠동 952-4",
    "objective": "생활방범",
    "cnt": 3,
    "shoot_direction": "경동하이츠",
    "install_time": "2015-02",
    "latitude": 36.0126,
    "longitude": 129.3449
  },
  {
    "id": 259,
    "agency": "경상북도 포항시청",
    "road_addr": "경상북도 포항시 남구 대잠길 58-2 (대잠동)",
    "street_addr": "경상북도 포항시 남구 대잠동 712-7",
    "objective": "생활방범",
    "cnt": 3,
    "shoot_direction": "세원빌라",
    "install_time": "2015-12",
    "latitude": 36.0149,
    "longitude": 129.338
  },
  {
    "id": 260,
    "agency": "경상북도 포항시청",
    "road_addr": "경상북도 포항시 남구 행복길11번길 14-1 (대잠동)",
    "street_addr": "경상북도 포항시 남구 대잠동 780-101",
    "objective": "생활방범",
    "cnt": 2,
    "shoot_direction": "행복길11번길",
    "install_time": "2017-04",
    "latitude": 36.0125,
    "longitude": 129.3352
  },
  {
    "id": 261,
    "agency": "경상북도 포항시청",
    "road_addr": "경상북도 포항시 남구 행복주택길7번길 15 (대잠동)",
    "street_addr": "경상북도 포항시 남구 대잠동 668-48",
    "objective": "생활방범",
    "cnt": 4,
    "shoot_direction": "행복주택7번길",
    "install_time": "2017-04",
    "latitude": 36.0143,
    "longitude": 129.337
  },
  {
    "id": 262,
    "agency": "경상북도 포항시청",
    "road_addr": "경상북도 포항시 남구 새천년대로410번길 8 (대잠동)",
    "street_addr": "경상북도 포항시 남구 대잠동 955-5",
    "objective": "생활방범",
    "cnt": 2,
    "shoot_direction": "해성빌라",
    "install_time": "2017-04",
    "latitude": 36.0124,
    "longitude": 129.3439
  },
  {
    "id": 263,
    "agency": "경상북도 포항시청",
    "road_addr": "경상북도 포항시 남구 대이로189번길 11 (이동)",
    "street_addr": "경상북도 포항시 남구 이동 647-5",
    "objective": "생활방범",
    "cnt": 3,
    "shoot_direction": "라테라스빌라",
    "install_time": "2017-04",
    "latitude": 36.0313,
    "longitude": 129.3368
  },
  {
    "id": 264,
    "agency": "경상북도 포항시청",
    "road_addr": "경상북도 포항시 남구 대이로111번길 15 (대잠동)",
    "street_addr": "경상북도 포항시 남구 대잠동 463-2",
    "objective": "생활방범",
    "cnt": 3,
    "shoot_direction": "유소년축구장",
    "install_time": "2017-04",
    "latitude": 36.0247,
    "longitude": 129.3394
  },
  {
    "id": 265,
    "agency": "경상북도 포항시청",
    "road_addr": "경상북도 포항시 남구 대이로59번길 13 (대잠동)",
    "street_addr": "경상북도 포항시 남구 대잠동 998",
    "objective": "생활방범",
    "cnt": 3,
    "shoot_direction": "정안빌",
    "install_time": "2017-04",
    "latitude": 36.0197,
    "longitude": 129.3395
  },
  {
    "id": 266,
    "agency": "경상북도 포항시청",
    "road_addr": null,
    "street_addr": "경상북도 포항시 남구 장기면 창지리 214-4",
    "objective": "차량방범",
    "cnt": 2,
    "shoot_direction": "신계교차로 부근",
    "install_time": "2019-11",
    "latitude": 35.9359,
    "longitude": 129.4792
  },
  {
    "id": 267,
    "agency": "경상북도 포항시청",
    "road_addr": null,
    "street_addr": "경상북도 포항시 남구 장기면 신창리 887-39",
    "objective": "차량방범",
    "cnt": 2,
    "shoot_direction": "장기천부근",
    "install_time": "2018-11",
    "latitude": 35.8977,
    "longitude": 129.5203
  },
  {
    "id": 268,
    "agency": "경상북도 포항시청",
    "road_addr": null,
    "street_addr": "경상북도 포항시 남구 동촌동 701-1",
    "objective": "차량방범",
    "cnt": 3,
    "shoot_direction": "남구보건소 건너편",
    "install_time": "2018-11",
    "latitude": 35.9927,
    "longitude": 129.3972
  },
  {
    "id": 269,
    "agency": "경상북도 포항시청",
    "road_addr": null,
    "street_addr": "경상북도 포항시 남구 동촌동 701-2",
    "objective": "차량방범",
    "cnt": 3,
    "shoot_direction": "제철치안센터부근",
    "install_time": "2018-11",
    "latitude": 35.9942,
    "longitude": 129.3932
  },
  {
    "id": 270,
    "agency": "경상북도 포항시청",
    "road_addr": null,
    "street_addr": "경상북도 포항시 남구 연일읍 학전리 96-5",
    "objective": "차량방범",
    "cnt": 2,
    "shoot_direction": "옛토골성부근",
    "install_time": "2018-11",
    "latitude": 36.0303,
    "longitude": 129.3106
  },
  {
    "id": 271,
    "agency": "경상북도 포항시청",
    "road_addr": null,
    "street_addr": "경상북도 포항시 남구 송도동 531-5",
    "objective": "차량방범",
    "cnt": 2,
    "shoot_direction": "토박골식당",
    "install_time": "2017-07",
    "latitude": 36.0389,
    "longitude": 129.3779
  },
  {
    "id": 272,
    "agency": "경상북도 포항시청",
    "road_addr": "경상북도 포항시 남구 대해로 128 (대도동)",
    "street_addr": "경상북도 포항시 남구 대도동 110-30",
    "objective": "차량방범",
    "cnt": 2,
    "shoot_direction": "시스템에어컨",
    "install_time": "2017-07",
    "latitude": 36.0197,
    "longitude": 129.3653
  },
  {
    "id": 273,
    "agency": "경상북도 포항시청",
    "road_addr": null,
    "street_addr": "경상북도 포항시 남구 대잠동 471-2",
    "objective": "차량방범",
    "cnt": 3,
    "shoot_direction": "우방파크빌",
    "install_time": "2017-07",
    "latitude": 36.0255,
    "longitude": 129.344
  },
  {
    "id": 274,
    "agency": "경상북도 포항시청",
    "road_addr": null,
    "street_addr": "경상북도 포항시 남구 오천읍 세계리 384-1",
    "objective": "차량방범",
    "cnt": 2,
    "shoot_direction": "오천읍세계리-세계교차로",
    "install_time": "2017-11",
    "latitude": 35.9562,
    "longitude": 129.4332
  },
  {
    "id": 275,
    "agency": "경상북도 포항시청",
    "road_addr": null,
    "street_addr": "경상북도 포항시 남구 대도동 398-1",
    "objective": "차량방범",
    "cnt": 3,
    "shoot_direction": "섬안다리-시민볼링장",
    "install_time": "2017-11",
    "latitude": 36.0064,
    "longitude": 129.3586
  },
  {
    "id": 276,
    "agency": "경상북도 포항시청",
    "road_addr": null,
    "street_addr": "경상북도 포항시 남구 대도동 384-9",
    "objective": "차량방범",
    "cnt": 3,
    "shoot_direction": "시민볼링장교차로-섬안다리",
    "install_time": "2017-11",
    "latitude": 36.0072,
    "longitude": 129.3575
  },
  {
    "id": 277,
    "agency": "경상북도 포항시청",
    "road_addr": null,
    "street_addr": "경상북도 포항시 남구 오천읍 용산리 92-4",
    "objective": "차량방범",
    "cnt": 2,
    "shoot_direction": "오천교차로 부근",
    "install_time": "2016-11",
    "latitude": 35.9427,
    "longitude": 129.4062
  },
  {
    "id": 278,
    "agency": "경상북도 포항시청",
    "road_addr": null,
    "street_addr": "경상북도 포항시 남구 오천읍 문덕리 938",
    "objective": "차량방범",
    "cnt": 3,
    "shoot_direction": "남포항IC-문덕방향",
    "install_time": "2016-11",
    "latitude": 35.9524,
    "longitude": 129.3935
  },
  {
    "id": 279,
    "agency": "경상북도 포항시청",
    "road_addr": null,
    "street_addr": "경상북도 포항시 남구 연일읍 괴정리 19-6",
    "objective": "차량방범",
    "cnt": 3,
    "shoot_direction": "연일대교-택전",
    "install_time": "2016-11",
    "latitude": 35.9941,
    "longitude": 129.3433
  },
  {
    "id": 280,
    "agency": "경상북도 포항시청",
    "road_addr": null,
    "street_addr": "경상북도 포항시 남구 이동 54-3",
    "objective": "차량방범",
    "cnt": 2,
    "shoot_direction": "이동온천랜드-지곡",
    "install_time": "2016-11",
    "latitude": 36.0263,
    "longitude": 129.3333
  },
  {
    "id": 281,
    "agency": "경상북도 포항시청",
    "road_addr": null,
    "street_addr": "경상북도 포항시 남구 대송면 대각리 산 160-1",
    "objective": "차량방범",
    "cnt": 3,
    "shoot_direction": "자동차 전용도로",
    "install_time": "2016-11",
    "latitude": 35.9465,
    "longitude": 129.3777
  },
  {
    "id": 282,
    "agency": "경상북도 포항시청",
    "road_addr": null,
    "street_addr": "경상북도 포항시 남구 연일읍 달전리 453-2",
    "objective": "차량방범",
    "cnt": 2,
    "shoot_direction": "31번국도",
    "install_time": "2015-11",
    "latitude": 36.0362,
    "longitude": 129.2882
  },
  {
    "id": 283,
    "agency": "경상북도 포항시청",
    "road_addr": null,
    "street_addr": "경상북도 포항시 남구 연일읍 학전리 135-1",
    "objective": "차량방범",
    "cnt": 1,
    "shoot_direction": "자동차 전용도로",
    "install_time": "2015-11",
    "latitude": 36.0277,
    "longitude": 129.3086
  },
  {
    "id": 284,
    "agency": "경상북도 포항시청",
    "road_addr": null,
    "street_addr": "경상북도 포항시 남구 연일읍 유강리 233-3",
    "objective": "차량방범",
    "cnt": 1,
    "shoot_direction": "경주-유강",
    "install_time": "2015-11",
    "latitude": 36.0016,
    "longitude": 129.3152
  },
  {
    "id": 285,
    "agency": "경상북도 포항시청",
    "road_addr": "경상북도 포항시 남구 축항로 55 (송도동)",
    "street_addr": "경상북도 포항시 남구 송도동 471-1",
    "objective": "차량방범",
    "cnt": 2,
    "shoot_direction": "송림초",
    "install_time": "2015-11",
    "latitude": 36.0299,
    "longitude": 129.374
  },
  {
    "id": 286,
    "agency": "경상북도 포항시청",
    "road_addr": "경상북도 포항시 남구 상대로 120 (대도동)",
    "street_addr": "경상북도 포항시 남구 대도동 627-21",
    "objective": "차량방범",
    "cnt": 1,
    "shoot_direction": "아이팰리스",
    "install_time": "2015-11",
    "latitude": 36.0136,
    "longitude": 129.3595
  },
  {
    "id": 287,
    "agency": "경상북도 포항시청",
    "road_addr": "경상북도 포항시 남구 정몽주로 890 (청림동)",
    "street_addr": "경상북도 포항시 남구 청림동 934-6",
    "objective": "차량방범",
    "cnt": 2,
    "shoot_direction": "청림초 정문",
    "install_time": "2015-11",
    "latitude": 35.9946,
    "longitude": 129.4038
  },
  {
    "id": 288,
    "agency": "경상북도 포항시청",
    "road_addr": null,
    "street_addr": "경상북도 포항시 남구 동해면 도구리 923",
    "objective": "차량방범",
    "cnt": 1,
    "shoot_direction": "공항삼거리-남부소방서",
    "install_time": "2015-11",
    "latitude": 35.9898,
    "longitude": 129.4312
  },
  {
    "id": 289,
    "agency": "경상북도 포항시청",
    "road_addr": "경상북도 포항시 남구 새천년대로 421 (대잠동)",
    "street_addr": "경상북도 포항시 남구 대잠동 907-5",
    "objective": "차량방범",
    "cnt": 2,
    "shoot_direction": "MBC앞",
    "install_time": "2015-11",
    "latitude": 36.0135,
    "longitude": 129.3439
  },
  {
    "id": 290,
    "agency": "경상북도 포항시청",
    "road_addr": "경상북도 포항시 남구 새천년대로 420 (대잠동)",
    "street_addr": "경상북도 포항시 남구 대잠동 948",
    "objective": "차량방범",
    "cnt": 2,
    "shoot_direction": "MBC맞은편",
    "install_time": "2015-11",
    "latitude": 36.0134,
    "longitude": 129.3439
  },
  {
    "id": 291,
    "agency": "경상북도 포항시청",
    "road_addr": "경상북도 포항시 남구 희망대로 246 (이동)",
    "street_addr": "경상북도 포항시 남구 이동 312",
    "objective": "차량방범",
    "cnt": 2,
    "shoot_direction": "포항IC",
    "install_time": "2015-11",
    "latitude": 36.0403,
    "longitude": 129.3236
  },
  {
    "id": 292,
    "agency": "경상북도 포항시청",
    "road_addr": null,
    "street_addr": "경상북도 포항시 남구 인덕동 54-23",
    "objective": "차량방범",
    "cnt": 3,
    "shoot_direction": "인덕초",
    "install_time": "2015-11",
    "latitude": 35.9851,
    "longitude": 129.4022
  },
  {
    "id": 293,
    "agency": "경상북도 포항시청",
    "road_addr": "경상북도 포항시 남구 지곡로 77 (지곡동)",
    "street_addr": "경상북도 포항시 남구 지곡동 166-3",
    "objective": "차량방범",
    "cnt": 2,
    "shoot_direction": "승리교차로-낙원교차로 방면",
    "install_time": "2015-11",
    "latitude": 36.0141,
    "longitude": 129.3254
  },
  {
    "id": 294,
    "agency": "경상북도 포항시청",
    "road_addr": null,
    "street_addr": "경상북도 포항시 남구 오천읍 문덕리 산 184-2",
    "objective": "차량방범",
    "cnt": 3,
    "shoot_direction": "일반도로",
    "install_time": "2014-11",
    "latitude": 35.9524,
    "longitude": 129.3935
  },
  {
    "id": 295,
    "agency": "경상북도 포항시청",
    "road_addr": null,
    "street_addr": "경상북도 포항시 남구 연일읍 중단리 산 36-17",
    "objective": "차량방범",
    "cnt": 2,
    "shoot_direction": "자동차 전용도로",
    "install_time": "2014-11",
    "latitude": 35.9882,
    "longitude": 129.3216
  },
  {
    "id": 296,
    "agency": "경상북도 포항시청",
    "road_addr": "경상북도 포항시 남구 포스코대로 319 (상도동)",
    "street_addr": "경상북도 포항시 남구 상도동 5-2",
    "objective": "차량방범",
    "cnt": 4,
    "shoot_direction": "우리은행",
    "install_time": "2014-11",
    "latitude": 36.0188,
    "longitude": 129.3585
  },
  {
    "id": 297,
    "agency": "경상북도 포항시청",
    "road_addr": null,
    "street_addr": "경상북도 포항시 남구 대송면 대각리 273-1",
    "objective": "차량방범",
    "cnt": 4,
    "shoot_direction": "일반도로",
    "install_time": "2014-11",
    "latitude": 35.9556,
    "longitude": 129.3653
  },
  {
    "id": 298,
    "agency": "경상북도 포항시청",
    "road_addr": null,
    "street_addr": "경상북도 포항시 남구 오천읍 문덕리 산 51-15",
    "objective": "차량방범",
    "cnt": 2,
    "shoot_direction": "준양참마을 건너편",
    "install_time": "2013-11",
    "latitude": 35.9635,
    "longitude": 129.3994
  },
  {
    "id": 299,
    "agency": "경상북도 포항시청",
    "road_addr": null,
    "street_addr": "경상북도 포항시 남구 오천읍 문덕리 183-1",
    "objective": "차량방범",
    "cnt": 2,
    "shoot_direction": "준양참마을 앞",
    "install_time": "2013-11",
    "latitude": 35.9634,
    "longitude": 129.4002
  },
  {
    "id": 300,
    "agency": "경상북도 포항시청",
    "road_addr": null,
    "street_addr": "경상북도 포항시 남구 연일읍 생지리 451-1",
    "objective": "차량방범",
    "cnt": 1,
    "shoot_direction": "형산강변로",
    "install_time": "2013-11",
    "latitude": 36.0003,
    "longitude": 129.3416
  },
  {
    "id": 301,
    "agency": "경상북도 포항시청",
    "road_addr": null,
    "street_addr": "경상북도 포항시 남구 연일읍 생지리 410-19",
    "objective": "차량방범",
    "cnt": 2,
    "shoot_direction": "형산강변로",
    "install_time": "2013-11",
    "latitude": 36.0003,
    "longitude": 129.3415
  },
  {
    "id": 302,
    "agency": "경상북도 포항시청",
    "road_addr": "경상북도 포항시 북구 법원로8번길 16 (장성동)",
    "street_addr": "경상북도 포항시 북구 장성동 1454-1",
    "objective": "어린이보호",
    "cnt": 2,
    "shoot_direction": "예쁜어린이집",
    "install_time": "2015-12",
    "latitude": 36.0759,
    "longitude": 129.3881
  },
  {
    "id": 303,
    "agency": "경상북도 포항시청",
    "road_addr": "경상북도 포항시 북구 장량로17번길 15-10 (장성동)",
    "street_addr": "경상북도 포항시 북구 장성동 1517-11",
    "objective": "어린이보호",
    "cnt": 2,
    "shoot_direction": "장성9공원",
    "install_time": "2015-12",
    "latitude": 36.0839,
    "longitude": 129.3814
  },
  {
    "id": 304,
    "agency": "경상북도 포항시청",
    "road_addr": null,
    "street_addr": "경상북도 포항시 북구 장성동 1436-1",
    "objective": "어린이보호",
    "cnt": 3,
    "shoot_direction": "장성5공원",
    "install_time": "2015-12",
    "latitude": 36.0783,
    "longitude": 129.3948
  },
  {
    "id": 305,
    "agency": "경상북도 포항시청",
    "road_addr": "경상북도 포항시 북구 양덕로50번길 54 (양덕동)",
    "street_addr": "경상북도 포항시 북구 양덕동 2045",
    "objective": "어린이보호",
    "cnt": 2,
    "shoot_direction": "키즈하버드어린이집",
    "install_time": "2015-12",
    "latitude": 36.0834,
    "longitude": 129.4077
  },
  {
    "id": 306,
    "agency": "경상북도 포항시청",
    "road_addr": null,
    "street_addr": "경상북도 포항시 북구 양덕동 1908",
    "objective": "어린이보호",
    "cnt": 3,
    "shoot_direction": "헤세드어린이집",
    "install_time": "2015-12",
    "latitude": 36.0813,
    "longitude": 129.4061
  },
  {
    "id": 307,
    "agency": "경상북도 포항시청",
    "road_addr": null,
    "street_addr": "경상북도 포항시 북구 장성동 1512-1",
    "objective": "어린이보호",
    "cnt": 3,
    "shoot_direction": "장성2공원",
    "install_time": "2015-12",
    "latitude": 36.0847,
    "longitude": 129.3837
  },
  {
    "id": 308,
    "agency": "경상북도 포항시청",
    "road_addr": null,
    "street_addr": "경상북도 포항시 북구 장성동 1460-1",
    "objective": "어린이보호",
    "cnt": 2,
    "shoot_direction": "장성14공원",
    "install_time": "2015-12",
    "latitude": 36.0765,
    "longitude": 129.3868
  },
  {
    "id": 309,
    "agency": "경상북도 포항시청",
    "road_addr": null,
    "street_addr": "경상북도 포항시 북구 장성동 1391-1",
    "objective": "어린이보호",
    "cnt": 2,
    "shoot_direction": "장성13공원",
    "install_time": "2015-12",
    "latitude": 36.0861,
    "longitude": 129.39
  },
  {
    "id": 310,
    "agency": "경상북도 포항시청",
    "road_addr": "경상북도 포항시 북구 새천년대로1249번길 46 (장성동)",
    "street_addr": "경상북도 포항시 북구 장성동 1554-12",
    "objective": "어린이보호",
    "cnt": 3,
    "shoot_direction": "장성12공원",
    "install_time": "2015-12",
    "latitude": 36.0771,
    "longitude": 129.381
  },
  {
    "id": 311,
    "agency": "경상북도 포항시청",
    "road_addr": "경상북도 포항시 남구 상공로257번길 10 (해도동)",
    "street_addr": "경상북도 포항시 남구 해도동 512-2",
    "objective": "생활방범",
    "cnt": 4,
    "shoot_direction": "주택골목",
    "install_time": "2021-08",
    "latitude": 36.0241,
    "longitude": 129.3742
  },
  {
    "id": 312,
    "agency": "경상북도 포항시청",
    "road_addr": null,
    "street_addr": "경상북도 포항시 남구 해도동 236",
    "objective": "생활방범",
    "cnt": 2,
    "shoot_direction": "하나빌라",
    "install_time": "2021-08",
    "latitude": 36.0123,
    "longitude": 129.3675
  },
  {
    "id": 313,
    "agency": "경상북도 포항시청",
    "road_addr": "경상북도 포항시 남구 중앙로42번길 23 (해도동)",
    "street_addr": "경상북도 포항시 남구 해도동 94-29",
    "objective": "생활방범",
    "cnt": 3,
    "shoot_direction": "해도어르신행복센터",
    "install_time": "2020-07",
    "latitude": 36.0173,
    "longitude": 129.3727
  },
  {
    "id": 314,
    "agency": "경상북도 포항시청",
    "road_addr": "경상북도 포항시 남구 중앙로62번길 12 (해도동)",
    "street_addr": "경상북도 포항시 남구 해도동 84-10",
    "objective": "생활방범",
    "cnt": 3,
    "shoot_direction": "명성3광장아파트",
    "install_time": "2020-07",
    "latitude": 36.0189,
    "longitude": 129.371
  },
  {
    "id": 315,
    "agency": "경상북도 포항시청",
    "road_addr": "경상북도 포항시 남구 해동로72번길 6-1 (해도동)",
    "street_addr": "경상북도 포항시 남구 해도동 1-355",
    "objective": "생활방범",
    "cnt": 3,
    "shoot_direction": "한빛빌라",
    "install_time": "2020-07",
    "latitude": 36.026,
    "longitude": 129.3738
  },
  {
    "id": 316,
    "agency": "경상북도 포항시청",
    "road_addr": "경상북도 포항시 남구 형산강북로 389 (해도동)",
    "street_addr": "경상북도 포항시 남구 해도동 183-5",
    "objective": "생활방범",
    "cnt": 3,
    "shoot_direction": "문화예술회관삼거리",
    "install_time": "2020-07",
    "latitude": 36.0077,
    "longitude": 129.3655
  },
  {
    "id": 317,
    "agency": "경상북도 포항시청",
    "road_addr": "경상북도 포항시 남구 해동로137번길 10 (해도동)",
    "street_addr": "경상북도 포항시 남구 해도동 3-3",
    "objective": "생활방범",
    "cnt": 3,
    "shoot_direction": "동아맨션6동",
    "install_time": "2019-11",
    "latitude": 36.0313,
    "longitude": 129.37
  },
  {
    "id": 318,
    "agency": "경상북도 포항시청",
    "road_addr": "경상북도 포항시 남구 중앙로67번길 20-1 (해도동)",
    "street_addr": "경상북도 포항시 남구 해도동 77-20",
    "objective": "생활방범",
    "cnt": 1,
    "shoot_direction": "두영유리",
    "install_time": "2019-07",
    "latitude": 36.0188,
    "longitude": 129.3674
  },
  {
    "id": 319,
    "agency": "경상북도 포항시청",
    "road_addr": "경상북도 포항시 남구 문예로100번길 28 (해도동)",
    "street_addr": "경상북도 포항시 남구 해도동 118-2",
    "objective": "생활방범",
    "cnt": 2,
    "shoot_direction": "한진열쇠",
    "install_time": "2019-07",
    "latitude": 36.0145,
    "longitude": 129.3685
  },
  {
    "id": 320,
    "agency": "경상북도 포항시청",
    "road_addr": "경상북도 포항시 남구 상공로222번길 22 (해도동)",
    "street_addr": "경상북도 포항시 남구 해도동 55-44",
    "objective": "생활방범",
    "cnt": 2,
    "shoot_direction": "주택가",
    "install_time": "2019-07",
    "latitude": 36.0209,
    "longitude": 129.3705
  },
  {
    "id": 321,
    "agency": "경상북도 포항시청",
    "road_addr": "경상북도 포항시 남구 중앙로11번길 7 (해도동)",
    "street_addr": "경상북도 포항시 남구 해도동 171-4",
    "objective": "생활방범",
    "cnt": 2,
    "shoot_direction": "대신택배해도점",
    "install_time": "2018-06",
    "latitude": 36.0141,
    "longitude": 129.37
  },
  {
    "id": 322,
    "agency": "경상북도 포항시청",
    "road_addr": "경상북도 포항시 남구 중앙로146번길 25 (해도동)",
    "street_addr": "경상북도 포항시 남구 해도동 43-12",
    "objective": "생활방범",
    "cnt": 4,
    "shoot_direction": "세이브마트",
    "install_time": "2018-06",
    "latitude": 36.0265,
    "longitude": 129.3704
  },
  {
    "id": 323,
    "agency": "경상북도 포항시청",
    "road_addr": "경상북도 포항시 남구 희망대로1003번길 28 (해도동)",
    "street_addr": "경상북도 포항시 남구 해도동 30-4",
    "objective": "생활방범",
    "cnt": 3,
    "shoot_direction": "용호비계",
    "install_time": "2018-06",
    "latitude": 36.0229,
    "longitude": 129.3748
  },
  {
    "id": 324,
    "agency": "경상북도 포항시청",
    "road_addr": "경상북도 포항시 남구 중앙로134번길 9 (해도동)",
    "street_addr": "경상북도 포항시 남구 해도동 413-40",
    "objective": "생활방범",
    "cnt": 3,
    "shoot_direction": "참마트",
    "install_time": "2018-06",
    "latitude": 36.0252,
    "longitude": 129.3693
  },
  {
    "id": 325,
    "agency": "경상북도 포항시청",
    "road_addr": "경상북도 포항시 남구 상공로246번길 20-7 (해도동)",
    "street_addr": "경상북도 포항시 남구 해도동 60-26",
    "objective": "생활방범",
    "cnt": 2,
    "shoot_direction": "동보상가맨션",
    "install_time": "2018-06",
    "latitude": 36.0212,
    "longitude": 129.3724
  },
  {
    "id": 326,
    "agency": "경상북도 포항시청",
    "road_addr": null,
    "street_addr": "경상북도 포항시 남구 해도동 148",
    "objective": "생활방범",
    "cnt": 3,
    "shoot_direction": "생명의다리",
    "install_time": "2017-11",
    "latitude": 36.0108,
    "longitude": 129.3727
  },
  {
    "id": 327,
    "agency": "경상북도 포항시청",
    "road_addr": "경상북도 포항시 남구 중앙로42번길 13 (해도동)",
    "street_addr": "경상북도 포항시 남구 해도동 94-20",
    "objective": "생활방범",
    "cnt": 4,
    "shoot_direction": "인터피아원룸",
    "install_time": "2014-08",
    "latitude": 36.0171,
    "longitude": 129.3717
  },
  {
    "id": 328,
    "agency": "경상북도 포항시청",
    "road_addr": "경상북도 포항시 남구 중앙로134번길 5 (해도동)",
    "street_addr": "경상북도 포항시 남구 해도동 413-19",
    "objective": "생활방범",
    "cnt": 2,
    "shoot_direction": "블루오션원룸",
    "install_time": "2015-02",
    "latitude": 36.0253,
    "longitude": 129.3686
  },
  {
    "id": 329,
    "agency": "경상북도 포항시청",
    "road_addr": null,
    "street_addr": "경상북도 포항시 남구 해도동 553",
    "objective": "생활방범",
    "cnt": 2,
    "shoot_direction": "제일강변타운앞",
    "install_time": "2017-06",
    "latitude": 36.0267,
    "longitude": 129.3753
  },
  {
    "id": 330,
    "agency": "경상북도 포항시청",
    "road_addr": "경상북도 포항시 남구 상공로 246-1 (해도동)",
    "street_addr": "경상북도 포항시 남구 해도동 35-36",
    "objective": "생활방범",
    "cnt": 1,
    "shoot_direction": "유림하우징",
    "install_time": "2016-08",
    "latitude": 36.023,
    "longitude": 129.3726
  },
  {
    "id": 331,
    "agency": "경상북도 포항시청",
    "road_addr": "경상북도 포항시 남구 상공로234번길 3-1 (해도동)",
    "street_addr": "경상북도 포항시 남구 해도동 38-31",
    "objective": "생활방범",
    "cnt": 1,
    "shoot_direction": "황토숯막창",
    "install_time": "2016-08",
    "latitude": 36.0225,
    "longitude": 129.3714
  },
  {
    "id": 332,
    "agency": "경상북도 포항시청",
    "road_addr": "경상북도 포항시 남구 상공로222번길 3 (해도동)",
    "street_addr": "경상북도 포항시 남구 해도동 39-31",
    "objective": "생활방범",
    "cnt": 2,
    "shoot_direction": "코아빌원룸",
    "install_time": "2016-08",
    "latitude": 36.0223,
    "longitude": 129.3701
  },
  {
    "id": 333,
    "agency": "경상북도 포항시청",
    "road_addr": "경상북도 포항시 남구 상공로 216-15 (해도동)",
    "street_addr": "경상북도 포항시 남구 해도동 56-3",
    "objective": "생활방범",
    "cnt": 2,
    "shoot_direction": "제일마디병원주차장",
    "install_time": "2016-08",
    "latitude": 36.0219,
    "longitude": 129.3695
  },
  {
    "id": 334,
    "agency": "경상북도 포항시청",
    "road_addr": "경상북도 포항시 남구 중앙로92번길 4 (해도동)",
    "street_addr": "경상북도 포항시 남구 해도동 54-10",
    "objective": "생활방범",
    "cnt": 2,
    "shoot_direction": "해원중전기",
    "install_time": "2016-08",
    "latitude": 36.0213,
    "longitude": 129.3694
  },
  {
    "id": 335,
    "agency": "경상북도 포항시청",
    "road_addr": "경상북도 포항시 남구 새천년대로450번길 11 (대잠동)",
    "street_addr": "경상북도 포항시 남구 대잠동 926-8",
    "objective": "생활방범",
    "cnt": 5,
    "shoot_direction": "GS25대잠점",
    "install_time": "2016-07",
    "latitude": 36.015,
    "longitude": 129.3469
  },
  {
    "id": 336,
    "agency": "경상북도 포항시청",
    "road_addr": "경상북도 포항시 남구 대잠길 16 (대잠동)",
    "street_addr": "경상북도 포항시 남구 대잠동 759-1",
    "objective": "생활방범",
    "cnt": 1,
    "shoot_direction": "대잠마을",
    "install_time": "2016-07",
    "latitude": 36.0109,
    "longitude": 129.3383
  },
  {
    "id": 337,
    "agency": "경상북도 포항시청",
    "road_addr": null,
    "street_addr": "경상북도 포항시 남구 대잠동 711-8",
    "objective": "생활방범",
    "cnt": 2,
    "shoot_direction": "성심마트",
    "install_time": "2016-07",
    "latitude": 36.0138,
    "longitude": 129.3383
  },
  {
    "id": 338,
    "agency": "경상북도 포항시청",
    "road_addr": "경상북도 포항시 남구 행복길 56 (대잠동, 행복아파트)",
    "street_addr": "경상북도 포항시 남구 대잠동 780-149",
    "objective": "생활방범",
    "cnt": 1,
    "shoot_direction": "행복아파트",
    "install_time": "2015-12",
    "latitude": 36.0166,
    "longitude": 129.3352
  },
  {
    "id": 339,
    "agency": "경상북도 포항시청",
    "road_addr": "경상북도 포항시 남구 대이로60번길 8 (대잠동)",
    "street_addr": "경상북도 포항시 남구 대잠동 994-1",
    "objective": "생활방범",
    "cnt": 2,
    "shoot_direction": "젤리BAR",
    "install_time": "2015-12",
    "latitude": 36.0209,
    "longitude": 129.3417
  },
  {
    "id": 340,
    "agency": "경상북도 포항시청",
    "road_addr": "경상북도 포항시 남구 효행길 1 (대잠동)",
    "street_addr": "경상북도 포항시 남구 대잠동 780-70",
    "objective": "생활방범",
    "cnt": 2,
    "shoot_direction": "웰빙아울렛",
    "install_time": "2015-12",
    "latitude": 36.0111,
    "longitude": 129.3361
  },
  {
    "id": 341,
    "agency": "경상북도 포항시청",
    "road_addr": "경상북도 포항시 남구 새천년대로474번길 14-2 (대잠동)",
    "street_addr": "경상북도 포항시 남구 대잠동 917-9",
    "objective": "생활방범",
    "cnt": 2,
    "shoot_direction": "세명고",
    "install_time": "2015-12",
    "latitude": 36.0168,
    "longitude": 129.3482
  },
  {
    "id": 342,
    "agency": "경상북도 포항시청",
    "road_addr": "경상북도 포항시 남구 대송면 장동홍계길 401",
    "street_addr": "경상북도 포항시 남구 대송면 홍계리 286",
    "objective": "생활방범",
    "cnt": 2,
    "shoot_direction": "홍계리경로당",
    "install_time": "2022-08",
    "latitude": 35.9486,
    "longitude": 129.3323
  },
  {
    "id": 343,
    "agency": "경상북도 포항시청",
    "road_addr": null,
    "street_addr": "경상북도 포항시 남구 대송면 제내리 596-37",
    "objective": "생활방범",
    "cnt": 2,
    "shoot_direction": "영남직업전문학교",
    "install_time": "2022-08",
    "latitude": 35.978,
    "longitude": 129.3646
  },
  {
    "id": 344,
    "agency": "경상북도 포항시청",
    "road_addr": "경상북도 포항시 남구 대송면 장동홍계길80번길 40",
    "street_addr": "경상북도 포항시 남구 대송면 공수리 207",
    "objective": "생활방범",
    "cnt": 2,
    "shoot_direction": "공수리구마을회관",
    "install_time": "2021-08",
    "latitude": 35.9647,
    "longitude": 129.3522
  },
  {
    "id": 345,
    "agency": "경상북도 포항시청",
    "road_addr": null,
    "street_addr": "경상북도 포항시 남구 대송면 송동리 426-20",
    "objective": "생활방범",
    "cnt": 2,
    "shoot_direction": "남천추어탕",
    "install_time": "2020-07",
    "latitude": 35.9728,
    "longitude": 129.3625
  },